LONGITUDE,LATITUDE,PORT_NAME,PORT_CODE,CNTR_CODE3,SIZE,geometry,Master
-84.27348346663997,45.981767466692,CHEBOYGAN,CHE,USA,,POINT (-84.27348346663997 45.981767466692),
-83.87905976189046,45.98407753967143,THESSALON,THE,USA,2.0,POINT (-83.87905976189046 45.98407753967143),
-149.85768745096075,-17.49603313725686,PAPETOAI,PAP,PYF,30.0,POINT (-149.8576874509608 -17.49603313725686),
107.92650833325,-6.207538888887501,PAMANUKAN,PAM,IDN,40.0,POINT (107.92650833325 -6.207538888887501),
104.92018785968324,-2.324112331408311,SUNGSANG,SUN,IDN,12.0,POINT (104.9201878596832 -2.324112331408311),
30.67347494567675,41.12276065591995,KARASU,KAR_1,TUR,13.0,POINT (30.67347494567675 41.12276065591995),
116.0344433081466,-4.028010433963229,LONTAR,LON,IDN,66.0,POINT (116.0344433081466 -4.028010433963229),
-96.12896359647368,15.752222105268416,CRUCECITA,CRU,MEX,,POINT (-96.12896359647368 15.75222210526842),
122.16870610436108,-2.793960930380889,UNAAHA,UNA,IDN,280.0,POINT (122.1687061043611 -2.793960930380889),UNAAHA
-60.75065653845385,8.606562948717691,CURIAPO,CUR,VEN,8.0,POINT (-60.75065653845385 8.606562948717691),
49.19954483481667,27.55686145478603,AS SAFFANIYAH,AS,SAU,130.0,POINT (49.19954483481667 27.55686145478603),
111.37337401522728,-8.26608462121091,SUKOREJO,SUK,IDN,68.0,POINT (111.3733740152273 -8.26608462121091),
121.27269417897536,39.504088133301785,JINZHOU,JIN,CHN,71.0,POINT (121.2726941789754 39.50408813330179),
122.44767325627444,30.42291368457669,QUSHAN,QUS,CHN,269.0,POINT (122.4476732562744 30.42291368457669),
122.20364959303066,29.726689186370727,XIAZHI,XIA,CHN,32.0,POINT (122.2036495930307 29.72668918637073),
122.41345929409954,30.66990209980296,CAIYUAN,CAI,CHN,34.0,POINT (122.4134592940995 30.66990209980296),
122.25391047009614,30.263401501063463,CHANGTU,CHA,CHN,105.0,POINT (122.2539104700961 30.26340150106346),
122.12690410633446,29.757407488973968,LIUHENG,LIU,CHN,610.0,POINT (122.1269041063345 29.75740748897397),
121.10476543809102,28.15952908893786,NANYUE,NAN,CHN,27.0,POINT (121.104765438091 28.15952908893786),
121.51020550726088,29.496136594204344,XIASHAN,XIA_1,CHN,107.0,POINT (121.5102055072609 29.49613659420434),
72.09336322759067,71.28165090179348,MYS-KAMENNYY,MYS,RUS,219.0,POINT (72.09336322759067 71.28165090179348),
113.19971930881816,21.95190428962379,NANSHUI,NAN_1,CHN,118.0,POINT (113.1997193088182 21.95190428962379),
118.47566409428188,38.94293094213163,DASHENTANG,DAS,CHN,85.0,POINT (118.4756640942819 38.94293094213163),
113.22036173963282,21.90147576895989,NANSHUI_1,NAN_2,CHN,70.0,POINT (113.2203617396328 21.90147576895989),NANSHUI_3_1
167.87023152169567,-21.54949376813044,TADINE,TAD,NCL,1.0,POINT (167.8702315216957 -21.54949376813044),
167.4241559677097,-22.659307956990325,VAO,VAO,NCL,1.0,POINT (167.4241559677097 -22.65930795699033),
148.74205373990245,-20.221773943087804,PROSERPINE,PRO,AUS,2.0,POINT (148.7420537399024 -20.2217739430878),
119.0610563677902,32.209378070519485,LONGTAN,LON_1,CHN,214.0,POINT (119.0610563677902 32.20937807051948),
113.89546066363609,22.08629661913698,TAI O,TAI,CHN,966.0,POINT (113.8954606636361 22.08629661913698),
105.8149957238514,19.342536522087983,THI TRAN TINH GIA,THI,VNM,58.0,POINT (105.8149957238514 19.34253652208798),
121.75861877562843,24.3009108163347,HUALIAN,HUA,CHN,33.0,POINT (121.7586187756284 24.3009108163347),
120.17137380055912,22.973477472468275,TAINAN,TAI_1,CHN,60.0,POINT (120.1713738005591 22.97347747246828),
-63.02189657801867,17.487202567727707,ORANJESTAD,ORA,BES,172.0,POINT (-63.02189657801867 17.48720256772771),ORANJESTAD
118.50098666664618,39.09874712820616,BENCHENG,BEN,CHN,65.0,POINT (118.5009866666462 39.09874712820616),
119.63298557871524,25.75501690972084,SONGXIA,SON,CHN,70.0,POINT (119.6329855787152 25.75501690972084),
122.58852996423792,30.77854653339224,WULONG,WUL,CHN,572.0,POINT (122.5885299642379 30.77854653339224),
122.62639119202476,30.806714767736736,HUANIAO,HUA_1,CHN,74.0,POINT (122.6263911920248 30.80671476773674),
110.0346654052204,19.965935856596147,LAOCHENG,LAO,CHN,107.0,POINT (110.0346654052204 19.96593585659615),
109.5858867335774,21.58185003340023,GAOQIAO,GAO,CHN,23.0,POINT (109.5858867335774 21.58185003340023),
121.74855808325,28.6865625,DUQIAO,DUQ,CHN,40.0,POINT (121.74855808325 28.6865625),
120.08371919216476,40.07104367368054,WANGBAO,WAN,CHN,31.0,POINT (120.0837191921648 40.07104367368054),
123.2115864813789,39.65597873457647,ZHUANGHE,ZHU,CHN,7.0,POINT (123.2115864813789 39.65597873457647),
122.39212636853917,30.6440904403806,CAIYUAN_1,CAI_1,CHN,86.0,POINT (122.3921263685392 30.6440904403806),
121.71231680568746,29.01845208331876,JIANTIAO,JIA_1,CHN,25.0,POINT (121.7123168056875 29.01845208331876),
121.95200597224998,30.34328277778333,DAIXI,DAI,CHN,56.0,POINT (121.95200597225 30.34328277778333),
120.67574009811766,27.48998735293529,JINXIANGZHEN,JIN_2,CHN,19.0,POINT (120.6757400981177 27.48998735293529),
121.66284438594738,29.51583228068948,XIZHOU,XIZ,CHN,62.0,POINT (121.6628443859474 29.51583228068948),
121.80812326562425,31.68699958626418,HEHE,HEH,CHN,94.0,POINT (121.8081232656242 31.68699958626418),
122.6023820676041,-1.249884462901057,LUWUK,LUW,IDN,30.0,POINT (122.6023820676041 -1.249884462901057),
119.73032551282692,26.740095705130777,XIABAISHI,XIA_2,CHN,63.0,POINT (119.7303255128269 26.74009570513078),
-77.91905768891813,25.832721712698675,HARD BARGAIN,HAR,BHS,,POINT (-77.91905768891813 25.83272171269867),HARD BARGAIN
118.46594063957836,31.759232895937377,CIHU,CIH,CHN,60.0,POINT (118.4659406395784 31.75923289593738),
121.92213483491663,30.30749337841111,SHADILI,SHA,CHN,75.0,POINT (121.9221348349166 30.30749337841111),
142.1967547163191,27.09475663121064,TATEYAMA,TAT,JPN,47.0,POINT (142.1967547163191 27.09475663121064),
116.5421611274706,22.99325480391471,JINGHAI,JIN_3,CHN,36.0,POINT (116.5421611274706 22.99325480391471),
118.52420200820416,38.91566330265023,BENCHENG_1,BEN_1,CHN,264.0,POINT (118.5242020082042 38.91566330265023),
108.62878914882984,15.477103262419153,NUI THANH,NUI,VNM,37.0,POINT (108.6287891488298 15.47710326241915),
121.77384622647168,31.302215628933965,HUAMU,HUA_2,CHN,100.0,POINT (121.7738462264717 31.30221562893396),
132.74124252767498,-5.631796874999584,TUAL,TUA,IDN,70.0,POINT (132.741242527675 -5.631796874999584),
121.41786043722948,30.742614617486883,SHANYANG,SHA_1,CHN,66.0,POINT (121.4178604372295 30.74261461748688),
40.849564404757146,47.567746666678566,SEMIKARAKORSK,SEM,RUS,7.0,POINT (40.84956440475715 47.56774666667857),
115.98965557692306,22.82736224358846,HUDONG,HUD,CHN,5.0,POINT (115.9896555769231 22.82736224358846),
-130.69961481472222,55.63351074072222,KETCHIKAN,KET,USA,1.0,POINT (-130.6996148147222 55.63351074072222),
124.4920494737895,-9.17697394737,PANTE MAKASAR,PAN,IDN,14.0,POINT (124.4920494737895 -9.17697394737),
128.4375193349658,34.94910027360349,GOSEONG,GOS,KOR,27.0,POINT (128.4375193349658 34.94910027360349),
119.87554333321428,-8.494090714285715,CEMPA,CEM,IDN,,POINT (119.8755433332143 -8.494090714285715),
-58.16949954867835,6.822261870441335,GEORGETOWN,GEO,GUY,10.0,POINT (-58.16949954867835 6.822261870441335),GEORGETOWN_2_1
122.29066982751723,30.47783459769656,QUSHAN_1,QUS_1,CHN,205.0,POINT (122.2906698275172 30.47783459769656),
-145.63145428564286,-16.05919702382143,TAUTIRA,TAU,PYF,1.0,POINT (-145.6314542856429 -16.05919702382143),
146.14001226852776,-5.540417592592499,MADANG,MAD,PNG,34.0,POINT (146.1400122685278 -5.540417592592499),
121.13945755991436,28.08563848230823,ZHUGANG,ZHU_1,CHN,56.0,POINT (121.1394575599144 28.08563848230823),
120.82180809535718,13.91512160714286,CALACA,CAL_1,PHL,74.0,POINT (120.8218080953572 13.91512160714286),
110.72789649511428,-6.432147058827405,BATANG,BAT,IDN,2.0,POINT (110.7278964951143 -6.432147058827405),
121.12183659413454,28.11573322654807,NANYUE_1,NAN_3,CHN,32.0,POINT (121.1218365941345 28.11573322654807),
-66.06346122807368,10.542355263168425,HIGUEROTE,HIG,VEN,53.0,POINT (-66.06346122807368 10.54235526316842),
125.81590238898168,9.548984055579115,CLAVER,CLA,PHL,117.0,POINT (125.8159023889817 9.548984055579115),
102.4012090417736,0.819655340237031,SIAK SRI INDRAPURA,SIA,IDN,26.0,POINT (102.4012090417736 0.8196553402370307),
111.67530979170836,21.532291354164588,SHANGYANG,SHA_2,CHN,46.0,POINT (111.6753097917084 21.53229135416459),
-151.00057890246345,-16.757524187,FITII,FIT,PYF,1.0,POINT (-151.0005789024634 -16.757524187),
56.581584704638,-10.342369599163288,TAKAMAKA,TAK,MUS,,POINT (56.581584704638 -10.34236959916329),
119.61056350873686,-4.365794824561053,PAREPARE,PAR,IDN,21.0,POINT (119.6105635087369 -4.365794824561053),
113.31920248360564,3.574086773815032,BINTULU,BIN,MYS,56.0,POINT (113.3192024836056 3.574086773815032),
39.52588861635472,20.654705911950938,MECCA,MEC,SAU,74.0,POINT (39.52588861635472 20.65470591195094),
39.54925196078528,20.617207598044114,MECCA_1,MEC_1,SAU,63.0,POINT (39.54925196078528 20.61720759804411),
123.51479162437418,9.73536747915416,OBONG,OBO,PHL,9.0,POINT (123.5147916243742 9.73536747915416),
-77.53832175592335,26.078382246994668,HARD BARGAIN_1,HAR_1,BHS,,POINT (-77.53832175592335 26.07838224699467),
104.2600435227237,1.327738826234711,KAMPUNG PASIR GUDANG BARU,KAM,MYS,117.0,POINT (104.2600435227237 1.327738826234711),
105.80830166671429,19.31354535711429,THI TRAN TINH GIA_1,THI_1,VNM,21.0,POINT (105.8083016667143 19.31354535711429),
128.0178212499167,1.718386111110833,TOBELO,TOB,IDN,7.0,POINT (128.0178212499167 1.718386111110833),
-88.40445376982245,16.513858293648067,PLACENCIA,PLA_1,BLZ,12.0,POINT (-88.40445376982245 16.51385829364807),
133.12320943885658,-2.429352799071745,BABO,BAB,IDN,67.0,POINT (133.1232094388566 -2.429352799071745),BABO_1_1
122.63025723369284,-1.209462291765316,LUWUK_1,LUW_1,IDN,40.0,POINT (122.6302572336928 -1.209462291765316),
119.48030750003778,-4.816957592597689,PANGKAJENE,PAN_1,IDN,24.0,POINT (119.4803075000378 -4.816957592597689),
73.67062615906323,68.5020477564344,MYS-KAMENNYY_1,MYS_1,RUS,34.0,POINT (73.67062615906323 68.50204775643439),
42.08958141666,17.608279666675,AD DARB,AD,SAU,70.0,POINT (42.08958141666 17.608279666675),
-73.38162231103877,11.274085933361867,DIBULLA,DIB,COL,25.0,POINT (-73.38162231103877 11.27408593336187),
87.01583014782538,20.86267191677637,CHANDBALI_1,CHA_2,IND,42.0,POINT (87.01583014782538 20.86267191677637),
108.016666667,16.3333333333,PHU LOC,PHU,VNM,20.0,POINT (108.016666667 16.3333333333),
39.150218564561,21.180957534863065,JEDDAH,JED,SAU,28.0,POINT (39.150218564561 21.18095753486307),
-14.361901114567171,28.04868870484251,PAJARA,PAJ,ESP,164.0,POINT (-14.36190111456717 28.04868870484251),
172.93551788619513,1.36750752032561,BETIO VILLAGE,BET,KIR,98.0,POINT (172.9355178861951 1.36750752032561),
-89.28828847766195,29.215552511976803,PORT SULPHUR,POR,USA,123.0,POINT (-89.28828847766195 29.2155525119768),
10.169028333315383,63.95178602566924,A I AFJORD,A I,NOR,8.0,POINT (10.16902833331538 63.95178602566924),
18.395840617288886,69.6333948148185,SORREISA,SOR,NOR,34.0,POINT (18.39584061728889 69.6333948148185),
129.35190411764705,37.17998411764116,SANTYOKU,SAN_1,KOR,10.0,POINT (129.3519041176471 37.17998411764116),
141.61511629032717,-12.926631328724884,WEIPA,WEI,AUS,49.0,POINT (141.6151162903272 -12.92663132872488),
106.54087222216668,-7.022233888889168,CIDADAP,CID,IDN,76.0,POINT (106.5408722221667 -7.022233888889168),
72.20743556667415,10.86814600000928,KAVARATTI,KAV,IND,,POINT (72.20743556667415 10.86814600000928),
73.65247964285713,10.06993869047857,KAVARATTI_1,KAV_1,IND,1.0,POINT (73.65247964285713 10.06993869047857),
-70.29046243055832,-22.72213569444584,TOCOPILLA,TOC,CHL,11.0,POINT (-70.29046243055832 -22.72213569444584),
120.04088330084916,40.03905749827656,QIANSUO,QIA,CHN,107.0,POINT (120.0408833008492 40.03905749827656),
109.0560061392482,21.04964628431212,BEIHAI,BEI,CHN,53.0,POINT (109.0560061392482 21.04964628431212),
-122.73729641034616,45.56723602565,WEST HAVEN_1,WES_1,USA,47.0,POINT (-122.7372964103462 45.56723602565),
113.58492404172604,-7.708270781891067,TANJUNG KIDUL,TAN_1,IDN,86.0,POINT (113.584924041726 -7.708270781891067),
91.81730448815392,21.536559059573865,COX'S BAZAR,COX,BGD,28.0,POINT (91.81730448815392 21.53655905957386),
164.66595935294487,-21.002607527711607,VOH,VOH,NCL,40.0,POINT (164.6659593529449 -21.00260752771161),
44.40478489583124,48.448385312475,VOLGOGRAD,VOL,RUS,1.0,POINT (44.40478489583124 48.448385312475),
126.48675038492308,36.41335205125384,TAISEN-RI,TAI_2,KOR,27.0,POINT (126.4867503849231 36.41335205125384),
115.2400243055,-8.769700833333333,BUALU,BUA,IDN,54.0,POINT (115.2400243055 -8.769700833333333),
122.386692268008,29.76740577518824,GONGQIAN,GON,CHN,1115.0,POINT (122.386692268008 29.76740577518824),
47.47013482036259,43.007326493427016,KYAKHULAY,KYA,RUS,43.0,POINT (47.47013482036259 43.00732649342702),
102.30410885868416,0.933050235511158,SIAK SRI INDRAPURA_1,SIA_1,IDN,20.0,POINT (102.3041088586842 0.933050235511158),
122.56956231477778,30.612970185177776,WULONG_1,WUL_1,CHN,42.0,POINT (122.5695623147778 30.61297018517778),
105.79459819433332,19.364594583333336,THI TRAN TINH GIA_2,THI_2,VNM,11.0,POINT (105.7945981943333 19.36459458333334),
28.48586239295418,70.4719047008599,VUONNABAHTA,VUO,NOR,1.0,POINT (28.48586239295418 70.47190470085989),
121.14324708325002,37.622181458333344,GUXIAN,GUX,CHN,4.0,POINT (121.14324708325 37.62218145833334),
53.22182979169375,39.35839359372187,TURKMENBASY,TUR,TKM,17.0,POINT (53.22182979169375 39.35839359372187),
39.958477353278944,57.56667218455584,YAROSLAVL,YAR,RUS,39.0,POINT (39.95847735327894 57.56667218455584),
72.64955687500625,10.56005031249375,KAVARATTI_2,KAV_2,IND,1.0,POINT (72.64955687500625 10.56005031249375),
120.89674548587526,35.8644686111552,QINGSHAN,QIN,CHN,724.0,POINT (120.8967454858753 35.8644686111552),
122.54657361108332,30.40624,DONGJI,DON,CHN,574.0,POINT (122.5465736110833 30.40624),
88.02154388889166,21.666043055566664,CONTAI,CON,IND,40.0,POINT (88.02154388889166 21.66604305556666),
-90.30029984847728,-0.751724393939455,PUERTO AYORA,PUE,ECU,27.0,POINT (-90.30029984847728 -0.7517243939394547),
-90.29412486110834,-0.444294375,PUERTO AYORA_1,PUE_1,ECU,12.0,POINT (-90.29412486110834 -0.4442943750000001),
-90.4334601282,-1.217496153846154,PUERTO AYORA_2,PUE_2,ECU,2.0,POINT (-90.4334601282 -1.217496153846154),
-14.463328539157526,10.204071832329223,BOFFA,BOF,GIN,12.0,POINT (-14.46332853915753 10.20407183232922),
7.790219363505714,48.57710098988014,SUVA_3,SUV_3,FRA,,POINT (7.790219363505714 48.57710098988014),
4.832734595181126,45.71411305472386,KARANGDOWO_1,KAR_2,FRA,,POINT (4.832734595181126 45.71411305472386),
22.19914220952176,60.44346828737584,PAPETOAI_1,PAP_1,FIN,21.0,POINT (22.19914220952176 60.44346828737584),
15.19324966820977,37.22640617023571,SAO JOAO DA BARRA_2,SAO_2,ITA,215.0,POINT (15.19324966820977 37.22640617023571),
8.455026549634626,49.50313193178649,COARI_1,COA_1,DEU,,POINT (8.455026549634626 49.50313193178649),
10.73108025605259,53.88838034967615,GANGWAN_1,GAN_1,DEU,,POINT (10.73108025605259 53.88838034967615),
8.933233386212073,52.30314571084342,LONTAR_1,LON_2,DEU,,POINT (8.933233386212073 52.30314571084342),
15.90796956816342,38.45762250138603,CRUCECITA_1,CRU_1,ITA,1015.0,POINT (15.90796956816342 38.45762250138603),
-5.900221431093693,54.62076381626103,CURIAPO_1,CUR_1,GBR,175.0,POINT (-5.900221431093693 54.62076381626103),
23.02786597685596,63.85069552109157,XINXING_1,XIN_1,FIN,110.0,POINT (23.02786597685596 63.85069552109157),
24.95813189501055,60.16069016527825,SUKOREJO_1,SUK_1,FIN,26.0,POINT (24.95813189501055 60.16069016527825),
3.820739969869149,51.3315651408131,JINZHOU_2,JIN_5,NLD,10.0,POINT (3.820739969869149 51.3315651408131),
9.43818939201169,54.80293798535455,QUSHAN_2,QUS_2,DEU,7.0,POINT (9.43818939201169 54.80293798535455),
8.357230361573011,40.83613824194761,XIAZHI_1,XIA_5,ITA,39.0,POINT (8.357230361573011 40.83613824194761),
-8.735366279160313,42.23591070279082,CHANGTU_1,CHA_3,ESP,60.0,POINT (-8.735366279160313 42.23591070279082),CHANGTU_1
16.47231018745259,57.26400050263574,QOBUSTAN_1,QOB_1,SWE,40.0,POINT (16.47231018745259 57.26400050263574),
-21.89240559469355,64.15054237156798,XIASHAN_1,XIA_6,ISL,51.0,POINT (-21.89240559469355 64.15054237156798),
17.24222759442722,60.68826695420039,SINDANGLAUT_1,SIN_1,SWE,3.0,POINT (17.24222759442722 60.68826695420039),
5.974874180894831,51.19254340436095,CARMELO_1,CAR_1,NLD,,POINT (5.974874180894831 51.19254340436095),
5.887742414846129,51.14843572949588,SCARBOROUGH_1,SCA_1,NLD,,POINT (5.887742414846129 51.14843572949588),
-4.167825388782959,50.37448431602506,NANSHUI_2,NAN_5,GBR,10.0,POINT (-4.167825388782959 50.37448431602506),NANSHUI_2
5.427845578899,53.1853906501985,KELANABIAN_1,KEL_1,NLD,21.0,POINT (5.427845578899 53.1853906501985),
4.667125529461859,51.79933934120391,SAN-PEDRO_1,SAN_2,NLD,28.0,POINT (4.667125529461859 51.79933934120391),
4.783659011421128,52.95491160551743,DASHENTANG_1,DAS_1,NLD,8.0,POINT (4.783659011421128 52.95491160551743),
-1.360647187217278,54.91132498611731,PROSERPINE_1,PRO_1,GBR,15.0,POINT (-1.360647187217278 54.91132498611731),
-5.417815916878033,36.14129330747087,LONGTAN_1,LON_3,ESP,471.0,POINT (-5.417815916878033 36.14129330747087),LONGTAN_1
-1.20981571453991,46.15522771653211,TAI O_1,TAI_3,FRA,88.0,POINT (-1.20981571453991 46.15522771653211),
14.87251420638518,56.15938311317675,JINZHOU_3,JIN_6,SWE,25.0,POINT (14.87251420638518 56.15938311317675),
-4.468915865430087,48.38371725759285,TAINAN_1,TAI_4,FRA,102.0,POINT (-4.468915865430087 48.38371725759285),
17.97114891694817,40.65138524668096,WENGYANG_1,WEN_1,ITA,138.0,POINT (17.97114891694817 40.65138524668096),
10.15584730057691,54.32705562114403,WULONG_2,WUL_2,DEU,81.0,POINT (10.15584730057691 54.32705562114403),
6.754590772533546,51.44580403528887,HUANIAO_1,HUA_4,DEU,,POINT (6.754590772533546 51.44580403528887),
-5.921931375747126,43.57358518228015,JIANGYIN_1,JIA_2,ESP,97.0,POINT (-5.921931375747126 43.57358518228015),
8.236549197312005,50.02361970922379,LAOCHENG_1,LAO_1,DEU,,POINT (8.236549197312005 50.02361970922379),
11.67587557866944,52.17050506730042,GAOQIAO_2,GAO_2,DEU,,POINT (11.67587557866944 52.17050506730042),
6.982353933622724,50.97195032765242,DUQIAO_1,DUQ_1,DEU,,POINT (6.982353933622724 50.97195032765242),
18.53185289240389,54.53204177691025,WANGBAO_1,WAN_1,POL,310.0,POINT (18.53185289240389 54.53204177691025),
-5.692877988412837,43.55695221172502,ZHUANGHE_1,ZHU_2,ESP,222.0,POINT (-5.692877988412837 43.55695221172502),
25.97200776859006,43.85876109126353,JIANTIAO_1,JIA_3,ROU,,POINT (25.97200776859006 43.85876109126353),
28.79611737558042,45.19195208688557,DAIXI_1,DAI_1,ROU,6.0,POINT (28.79611737558042 45.19195208688557),
28.5782600767713,43.7990756691243,XIZHOU_1,XIZ_1,ROU,14.0,POINT (28.5782600767713 43.7990756691243),
-8.853129245177627,40.13944186783316,HEHE_1,HEH_1,PRT,8.0,POINT (-8.853129245177627 40.13944186783316),
-8.859481851647143,37.94456415620213,PLAYAS_1,PLA_3,PRT,23.0,POINT (-8.859481851647143 37.94456415620213),SINES_2
28.6794544954485,44.33869425184422,CIHU_1,CIH_1,ROU,130.0,POINT (28.6794544954485 44.33869425184422),NAVODARI
-8.834559433157708,41.68715978635369,SHADILI_1,SHA_3,PRT,16.0,POINT (-8.834559433157708 41.68715978635369),SHADILI_1
7.202712800429452,51.55637380915638,JINGHAI_1,JIN_8,DEU,,POINT (7.202712800429452 51.55637380915638),
17.20457592076298,40.48358828236183,YATE-BARRAGE_1,YAT_1,ITA,127.0,POINT (17.20457592076298 40.48358828236183),STATTE
3.209225073265417,51.32976267085915,NUI THANH_1,NUI_1,BEL,1460.0,POINT (3.209225073265417 51.32976267085915),NUI THANH_1
3.220503241514548,51.23021017173105,SVETLYY YAR_1,SVE_1,BEL,1.0,POINT (3.220503241514548 51.23021017173105),
14.58647684939358,53.41482057818952,TUAL_1,TUA_1,POL,261.0,POINT (14.58647684939358 53.41482057818952),
-6.326793414560991,36.6192083297767,SHANYANG_1,SHA_4,ESP,31.0,POINT (-6.326793414560991 36.6192083297767),
14.16708124020883,40.81083036966753,SEMIKARAKORSK_1,SEM_2,ITA,,POINT (14.16708124020883 40.81083036966753),
12.85873815532172,56.65868798650887,PANTE MAKASAR_1,PAN_2,SWE,96.0,POINT (12.85873815532172 56.65868798650887),
28.33561475265961,61.05595751447451,GOSEONG_1,GOS_1,FIN,,POINT (28.33561475265961 61.05595751447451),
18.19097508136828,57.3869739765845,WEST HAVEN_2,WES_2,SWE,,POINT (18.19097508136828 57.3869739765845),
12.48208289284836,56.89133449247198,BIAK_1,BIA_1,SWE,11.0,POINT (12.48208289284836 56.89133449247198),
-7.352646727715255,43.65724607979291,CEMPA_1,CEM_1,ESP,,POINT (-7.352646727715255 43.65724607979291),
-8.821689756958914,42.516815611009,MATANZAS_1,MAT_1,ESP,,POINT (-8.821689756958914 42.516815611009),
-3.52454628715119,36.72142710818072,ZHELIN_1,ZHE_2,ESP,146.0,POINT (-3.52454628715119 36.72142710818072),
29.75207036207438,62.58412833890814,GEORGETOWN_1,GEO_1,FIN,,POINT (29.75207036207438 62.58412833890814),
1.062145212542452,41.06349582747765,COUNTRY CLUB_1,COU_1,ESP,,POINT (1.062145212542452 41.06349582747765),
2.559402332651041,41.57754606848486,JINJING_1,JIN_9,ESP,,POINT (2.559402332651041 41.57754606848486),
-3.213964603629133,43.38119300382944,ORIXIMINA_1,ORI_1,ESP,1.0,POINT (-3.213964603629133 43.38119300382944),
22.69332774759994,59.07069503161969,AODONG_1,AOD_1,EST,,POINT (22.69332774759994 59.07069503161969),
23.42528366198383,58.90704078183317,CHIXI_1,CHI_1,EST,,POINT (23.42528366198383 58.90704078183317),
23.04377884641599,58.86452056768403,RABAUL_1,RAB_1,EST,,POINT (23.04377884641599 58.86452056768403),
22.04702810775085,58.46048630440155,GAOQIAO_3,GAO_3,EST,,POINT (22.04702810775085 58.46048630440155),
23.71068642854743,64.2228552143446,XIAOMO_1,XIA_9,FIN,27.0,POINT (23.71068642854743 64.22285521434461),
-0.153112796693178,38.99484907012079,ZHUGANG_1,ZHU_3,ESP,32.0,POINT (-0.153112796693178 38.99484907012079),
-3.021515263299257,36.74487184872516,CALACA_1,CAL_3,ESP,,POINT (-3.021515263299257 36.74487184872516),
12.54619104579095,56.19809107301431,BATANG_1,BAT_1,SWE,,POINT (12.54619104579095 56.19809107301431),
26.25125050812208,60.41246264919997,NANYUE_3,NAN_7,FIN,32.0,POINT (26.25125050812208 60.41246264919997),VALKO (VALKOM)
-0.755451584293507,37.82066776901749,HIGUEROTE_1,HIG_1,ESP,,POINT (-0.7554515842935068 37.82066776901749),
-7.868633709927518,43.73523211464367,CLAVER_1,CLA_1,ESP,10.0,POINT (-7.868633709927518 43.73523211464367),
-7.470317032720695,43.70368388145696,AL HAMMAMAT_1,AL _1,ESP,73.0,POINT (-7.470317032720695 43.70368388145696),
12.91842809959507,55.58431460753414,SHANGYANG_1,SHA_5,SWE,,POINT (12.91842809959507 55.58431460753414),
16.64686535846185,57.76391644324847,FITII_1,FIT_1,SWE,47.0,POINT (16.64686535846185 57.76391644324847),
14.31928452138673,55.92901716417889,BINTULU_1,BIN_1,SWE,11.0,POINT (14.31928452138673 55.92901716417889),
-1.898356229496198,36.97159099243126,MECCA_2,MEC_2,ESP,26.0,POINT (-1.898356229496198 36.97159099243126),
11.54369057299821,57.99107938082101,MECCA_3,MEC_3,SWE,,POINT (11.54369057299821 57.99107938082101),
1.732429845188766,41.21186420246694,OBONG_1,OBO_1,ESP,1.0,POINT (1.732429845188766 41.21186420246694),
14.35641164383405,55.55591080348383,HARD BARGAIN_3,HAR_3,SWE,,POINT (14.35641164383405 55.55591080348383),
17.11075308817337,58.66300738818881,KAMPUNG PASIR GUDANG BARU_1,KAM_1,SWE,84.0,POINT (17.11075308817337 58.66300738818881),
-8.933564487525445,42.60712108714858,THI TRAN TINH GIA_4,THI_4,ESP,21.0,POINT (-8.933564487525445 42.60712108714858),
-0.070424528185353,39.86149191412554,PLACENCIA_2,PLA_4,ESP,,POINT (-0.07042452818535309 39.86149191412554),
1.402653760205979,41.13447853753375,BABO_1,BAB_1,ESP,1.0,POINT (1.402653760205979 41.13447853753375),
1.864604901678342,41.23813744572425,PLACENCIA_3,PLA_5,ESP,,POINT (1.864604901678342 41.23813744572425),
11.4486703707824,58.27431551549133,PANGKAJENE_1,PAN_3,SWE,4.0,POINT (11.4486703707824 58.27431551549133),
3.137562548604582,39.83749922863633,YANGSHAN_3,YAN_3,ESP,16.0,POINT (3.137562548604582 39.83749922863633),
15.57890913111297,56.15900800847979,SAO JOAO DA BARRA_3,SAO_3,SWE,1.0,POINT (15.57890913111297 56.15900800847979),
22.69524589481733,63.71314016155019,AD DARB_1,AD _1,FIN,58.0,POINT (22.69524589481733 63.71314016155019),
16.37161832402668,56.65741666785738,DIBULLA_1,DIB_1,SWE,4.0,POINT (16.37161832402668 56.65741666785738),
-6.08431261676665,43.55158366523971,CHANDBALI_3,CHA_5,ESP,,POINT (-6.08431261676665 43.55158366523971),
23.38838171781362,58.57275484091251,PHU LOC_1,PHU_1,EST,,POINT (23.38838171781362 58.57275484091251),
9.255726731914711,48.76761224831814,JEDDAH_1,JED_1,DEU,,POINT (9.255726731914711 48.76761224831814),
22.46994012760267,58.24538283891118,AGAETE_1,AGA_1,EST,,POINT (22.46994012760267 58.24538283891118),
9.89004166684111,49.79968473231306,DAJIJIA_1,DAJ_1,DEU,,POINT (9.89004166684111 49.79968473231306),
13.33394923661833,52.53758770981215,BETIO VILLAGE_1,BET_1,DEU,,POINT (13.33394923661833 52.53758770981215),
10.48492827755011,52.31413580560611,PORT SULPHUR_1,POR_1,DEU,,POINT (10.48492827755011 52.31413580560611),
10.86808629116474,49.90867791089664,A I AFJORD_1,A I_1,DEU,,POINT (10.86808629116474 49.90867791089664),
13.70831033277818,51.06435903445508,SORREISA_1,SOR_1,DEU,,POINT (13.70831033277818 51.06435903445508),
8.865501324710456,54.1262654268191,SANTYOKU_1,SAN_3,DEU,,POINT (8.865501324710456 54.1262654268191),
7.427300832769055,50.4414481773088,WEIPA_1,WEI_1,DEU,,POINT (7.427300832769055 50.4414481773088),
6.712306536631758,51.45883050689924,KAVARATTI_3,KAV_3,DEU,,POINT (6.712306536631758 51.45883050689924),
6.741270274796789,51.21673574160231,KAVARATTI_4,KAV_4,DEU,,POINT (6.741270274796789 51.21673574160231),
9.861413107793176,54.47282873323516,TOCOPILLA_1,TOC_1,DEU,,POINT (9.861413107793176 54.47282873323516),
14.65862704887868,52.13320321946075,QIANSUO_1,QIA_1,DEU,,POINT (14.65862704887868 52.13320321946075),
10.36259902340956,53.42925575685202,BEIHAI_1,BEI_1,DEU,,POINT (10.36259902340956 53.42925575685202),
7.201672017382786,53.35088668646387,WEST HAVEN_3,WES_3,DEU,137.0,POINT (7.201672017382786 53.35088668646387),
7.435800450542965,51.52817397186305,COX'S BAZAR_1,COX_1,DEU,,POINT (7.435800450542965 51.52817397186305),
8.376703128557974,49.2348179019565,VOH_1,VOH_1,DEU,,POINT (8.376703128557974 49.2348179019565),
8.022697130309762,52.299396943769,VOLGOGRAD_1,VOL_1,DEU,,POINT (8.022697130309762 52.299396943769),
13.39181500329848,54.09906449575748,TAISEN-RI_1,TAI_5,DEU,,POINT (13.39181500329848 54.09906449575748),
11.06510944465233,49.39892266245479,BUALU_1,BUA_1,DEU,,POINT (11.06510944465233 49.39892266245479),
6.845284485782346,51.43743277586511,GONGQIAN_1,GON_1,DEU,,POINT (6.845284485782346 51.43743277586511),
-9.11501771964615,38.43730429080659,KOUMAC_1,KOU_1,PRT,,POINT (-9.115017719646151 38.43730429080659),
-9.369149448561966,39.35457340044659,KYAKHULAY_1,KYA_1,PRT,,POINT (-9.369149448561966 39.35457340044659),
-7.834617840766023,37.02600716056538,SIAK SRI INDRAPURA_3,SIA_3,PRT,,POINT (-7.834617840766023 37.02600716056538),
-8.672632492426768,37.10746090206915,THI TRAN TINH GIA_5,THI_5,PRT,,POINT (-8.672632492426768 37.10746090206915),
-8.526964743332995,37.13521727312887,VUONNABAHTA_1,VUO_1,PRT,4.0,POINT (-8.526964743332995 37.13521727312887),
7.3672423244486,53.724335379346,ZHENDONG_1,ZHE_3,DEU,,POINT (7.3672423244486 53.724335379346),
7.158300068763843,53.62486987993254,TURKMENBASY_1,TUR_1,DEU,,POINT (7.158300068763843 53.62486987993254),
13.58721346361383,54.48371085242459,YAROSLAVL_1,YAR_1,DEU,27.0,POINT (13.58721346361383 54.48371085242459),
13.76594007445209,54.13501142059925,KAVARATTI_5,KAV_5,DEU,,POINT (13.76594007445209 54.13501142059925),
10.09838623855677,53.44562849876532,QINGSHAN_1,QIN_1,DEU,,POINT (10.09838623855677 53.44562849876532),
10.42171955568128,52.18882893105801,DONGJI_1,DON_1,DEU,,POINT (10.42171955568128 52.18882893105801),
6.259614721465117,51.82932094710677,CONTAI_1,CON_1,DEU,,POINT (6.259614721465117 51.82932094710677),
8.728513860498117,50.11341569415558,PUERTO AYORA_3,PUE_3,DEU,,POINT (8.728513860498117 50.11341569415558),
7.070302008723636,51.53455416017538,PUERTO AYORA_4,PUE_4,DEU,,POINT (7.070302008723636 51.53455416017538),
9.215895616417493,49.17628926696489,PUERTO AYORA_5,PUE_5,DEU,,POINT (9.215895616417493 49.17628926696489),
8.326821858232892,49.01454804739284,BOFFA_1,BOF_1,DEU,,POINT (8.326821858232892 49.01454804739284),
7.645001947902323,51.949891423259,MUNSTER,MSR,DEU,,POINT (7.645001947902323 51.949891423259),
8.919111251476041,50.11734041388424,HANAU,HAU,DEU,,POINT (8.919111251476041 50.11734041388424),
10.98378001257005,54.37551717883434,HEILIGENHAFEN,HHF,DEU,,POINT (10.98378001257005 54.37551717883434),
7.814147300560981,48.59217939554556,KEHL,KEH,FRA,,POINT (7.814147300560981 48.59217939554556),
9.681965600988304,53.57253309142111,WEDEL-SCHULAU,WED,DEU,6.0,POINT (9.681965600988304 53.57253309142111),
11.45295997332265,53.90113195442466,WISMAR,WIS,DEU,64.0,POINT (11.45295997332265 53.90113195442466),
6.669794581760238,51.34038824248155,KREFELD,KRE,DEU,,POINT (6.669794581760238 51.34038824248155),
6.701969011566032,51.52986749509116,WALSUM,WLM,DEU,,POINT (6.701969011566032 51.52986749509116),
-20.27465165288176,63.44535214338975,VESTMANNAEYJAR - HOFN,VES,ISL,6.0,POINT (-20.27465165288176 63.44535214338975),VESTMANNAEYJAR - HOFN
-18.90667992994187,66.14965407233213,SIGLUFJORDUR - HOFN,SIG,ISL,,POINT (-18.90667992994187 66.14965407233213),
-21.37147717975992,63.85986386960619,THORLAKSHOFN (THORLAKSHOFN),THH,ISL,2.0,POINT (-21.37147717975992 63.85986386960619),
-23.12289935913142,66.06792312618752,ISAFJORDUR,ISA,ISL,25.0,POINT (-23.12289935913142 66.06792312618752),
-21.93690004810905,64.11470130221404,KOPAVOGUR,KOV,ISL,,POINT (-21.93690004810905 64.11470130221404),
-21.97442908694601,64.06514698848493,HAFNARFJORDUR,HAF,ISL,20.0,POINT (-21.97442908694601 64.06514698848493),
-18.09025369442526,65.69214621185388,AKUREYRI,AKU,ISL,60.0,POINT (-18.09025369442526 65.69214621185388),
-22.08515182715612,64.31410866706233,AKRANES,AKR,ISL,2.0,POINT (-22.08515182715612 64.31410866706233),
23.52397073991687,58.95755533886614,HAAPSALU,HAA,EST,,POINT (23.52397073991687 58.95755533886614),
-8.312408281824647,51.83306421264049,RINGASKIDDY,RIN,IRL,61.0,POINT (-8.312408281824647 51.83306421264049),PASSAGE WEST
-8.517545970749245,51.70363803340265,KINSALE,KLN,IRL,1.0,POINT (-8.517545970749245 51.70363803340265),
8.448606151941643,49.46599427963182,LUDWIGSHAFEN,LUH,DEU,,POINT (8.448606151941643 49.46599427963182),
10.56917269686825,53.37076028408288,LAUENBURG/ELBE,LNU,DEU,,POINT (10.56917269686825 53.37076028408288),
7.454313350050898,53.22219187527524,LEER,LEE,DEU,,POINT (7.454313350050898 53.22219187527524),
6.703822436409737,51.21100599510476,NEUSS,NSS,DEU,,POINT (6.703822436409737 51.21100599510476),
10.8068486985937,54.09708628283714,NEUSTADT/HOLSTEIN,NHO,DEU,,POINT (10.8068486985937 54.09708628283714),
7.16438978209828,53.70174447080728,NORDERNEY,NRD,DEU,,POINT (7.16438978209828 53.70174447080728),
8.747837805147936,50.11323717584222,OFFENBACH,OFF,DEU,,POINT (8.747837805147936 50.11323717584222),
8.237168810470752,53.14002792198807,OLDENBURG/OLDENBURG,OLO,DEU,,POINT (8.237168810470752 53.14002792198807),
13.64066313802024,54.51049590295231,SASSNITZ,SAS,DEU,2.0,POINT (13.64066313802024 54.51049590295231),
13.10517080562921,54.30900473859415,STRALSUND,STL,DEU,3.0,POINT (13.10517080562921 54.30900473859415),
13.77392172546987,54.04422555842969,WOLGAST,WOL,DEU,,POINT (13.77392172546987 54.04422555842969),
7.121054949697612,51.54405020395513,GRIMBERG,GMR,DEU,,POINT (7.121054949697612 51.54405020395513),
-6.066668904067129,53.39086331172322,HOWTH,HOW,IRL,,POINT (-6.066668904067129 53.39086331172322),
-6.134275737786605,53.29799442791276,DUN LAOGHAIRE,DLG,IRL,181.0,POINT (-6.134275737786605 53.29799442791276),
-6.040295671149176,52.98402373726348,WICKLOW,WIC,IRL,,POINT (-6.040295671149176 52.98402373726348),
-7.844435882306874,51.94839503911697,YOUGHAL,YOU,IRL,,POINT (-7.844435882306874 51.94839503911697),
-6.145641651954439,52.79629147066697,ARKLOW,ARK,IRL,,POINT (-6.145641651954439 52.79629147066697),
7.373991404503665,53.0934568927927,PAPENBURG,PAP_2,DEU,6.0,POINT (7.373991404503665 53.0934568927927),
-1.043906549636496,45.5405449725624,LE VERDON,LVE,FRA,5.0,POINT (-1.043906549636496 45.5405449725624),
9.869798267658387,55.85768682399861,HORSENS,HOR,DNK,2.0,POINT (9.869798267658387 55.85768682399861),
11.8473062756021,55.96146852908256,HUNDESTED,HUN,DNK,,POINT (11.8473062756021 55.96146852908256),
8.125570907920329,56.00182722603567,HVIDE SANDE,HVS,DNK,,POINT (8.125570907920329 56.00182722603567),
11.08255216229456,55.66147410659307,ASNAESVAERKETS HAVN,ASV,DNK,64.0,POINT (11.08255216229456 55.66147410659307),ASNAESVAERKETS HAVN
10.05179175896444,56.45990509464724,RANDERS,RAN_1,DNK,1.0,POINT (10.05179175896444 56.45990509464724),
15.13448898854645,55.05999697603627,NEKSO,NEX,DNK,,POINT (15.13448898854645 55.05999697603627),
10.78943869024883,55.30437353872586,NYBORG,NBG,DNK,4.0,POINT (10.78943869024883 55.30437353872586),ADP NYBORG TERMINAL
10.39051231643113,55.42129359717204,ODENSE,ODE,DNK,,POINT (10.39051231643113 55.42129359717204),
10.59312685181716,57.71843448976642,SKAGEN,SKA,DNK,411.0,POINT (10.59312685181716 57.71843448976642),
10.61848236887367,55.06062102118885,SVENDBORG,SVE_2,DNK,,POINT (10.61848236887367 55.06062102118885),
10.22792956649475,56.15181157740413,ARHUS,AAR,DNK,134.0,POINT (10.22792956649475 56.15181157740413),ARHUS_1
12.48358415993784,55.60300455645874,AVEDOREVAERKETS HAVN,AVE_1,DNK,,POINT (12.48358415993784 55.60300455645874),
8.22210873585499,56.69125398955988,THYBORON,TYB,DNK,,POINT (8.22210873585499 56.69125398955988),
11.09676519395228,55.66378513858882,STATOIL-HAVNEN,STT,DNK,105.0,POINT (11.09676519395228 55.66378513858882),ASNAESVAERKETS HAVN
17.42893133159408,43.04819722708496,PLOCE,PLE,HRV,60.0,POINT (17.42893133159408 43.04819722708496),
15.27053748910398,44.08875476984961,GAZENICA,GNA,HRV,40.0,POINT (15.27053748910398 44.08875476984961),
11.71918757938813,55.72024663959971,HOLBAEK,HBK,DNK,,POINT (11.71918757938813 55.72024663959971),
9.968041307818025,57.59410613986306,HIRTSHALS,HIR,DNK,27.0,POINT (9.968041307818025 57.59410613986306),
8.595932189735061,57.12152438922615,HANSTHOLM,HAN,DNK,,POINT (8.595932189735061 57.12152438922615),
10.92521089133518,56.41337168994578,GRENAA,GRE,DNK,36.0,POINT (10.92521089133518 56.41337168994578),
23.13158642877299,57.33510772630697,MERSRAGS,MRX,LVA,,POINT (23.13158642877299 57.33510772630697),
14.33274686175888,35.98649624785518,CIRKEWWA,CKW,MLT,19.0,POINT (14.33274686175888 35.98649624785518),
9.952859190330209,57.05171412599732,AALBORG,AAL,DNK,4.0,POINT (9.952859190330209 57.05171412599732),
12.39130569337275,55.60836500327854,VALLENSBAEK,VAE,DNK,,POINT (12.39130569337275 55.60836500327854),
14.46110681213705,44.54331746978804,MALI LOSINJ - PASSENGER PORT,LSZ,HRV,2.0,POINT (14.46110681213705 44.54331746978804),
10.08110736217639,55.56620614516923,BOGENSE,BGZ,DNK,,POINT (10.08110736217639 55.56620614516923),
8.430709639957515,55.46871929840519,ESBJERG,EBJ,DNK,74.0,POINT (8.430709639957515 55.46871929840519),
10.23829683084847,55.09487544207656,FABORG HAVN,FAA,DNK,,POINT (10.23829683084847 55.09487544207656),
9.746331769566602,55.55868073643263,FREDERICIA (OG SHELL-HAVNEN),FRC,DNK,73.0,POINT (9.746331769566602 55.55868073643263),
10.54648753034978,57.43967119493588,FREDERIKSHAVN,FDH,DNK,148.0,POINT (10.54648753034978 57.43967119493588),
9.498594873606892,55.49241951054721,KOLDING,KOL,DNK,3.0,POINT (9.498594873606892 55.49241951054721),
11.12968136668889,55.33090573066261,KORSOR,KRR,DNK,4.0,POINT (11.12968136668889 55.33090573066261),
12.19344140447607,55.46088125664888,KOGE,KOG,DNK,4.0,POINT (12.19344140447607 55.46088125664888),
10.67060972544645,56.19380098819227,EBELTOFT,EBT,DNK,1.0,POINT (10.67060972544645 56.19380098819227),
13.84269717719796,44.84119770244396,PULA,PUY,HRV,8.0,POINT (13.84269717719796 44.84119770244396),
14.56537407923812,45.27334422084036,KRALJEVICA,KRA,HRV,21.0,POINT (14.56537407923812 45.27334422084036),
19.90342236568375,39.62994698585536,CORFU (KERKIRA),CFU,GRC,46.0,POINT (19.90342236568375 39.62994698585536),
24.06138561246744,37.71155303984532,LAVRION (LAURIUM),LAV,GRC,53.0,POINT (24.06138561246744 37.71155303984532),LAVRION (LAURIUM)
24.48038007464586,35.36962488765102,RETHYMNO (RETHIMNO),RET,GRC,1.0,POINT (24.48038007464586 35.36962488765102),RETHYMNO
20.90077890311596,37.7815536699389,ZAKYNTHOS (ZAKINTHOS),ZTH,GRC,27.0,POINT (20.90077890311596 37.7815536699389),
22.91843193785927,40.6366761798928,THESSALONIKI (THESSALONIKI),SKG,GRC,115.0,POINT (22.91843193785927 40.6366761798928),THESSALONIKI (THESSALONIKI)
29.67741638024407,45.15593082550823,SULINA (PORT ET ZONE FRANCHE),SUL,ROU,,POINT (29.67741638024407 45.15593082550823),
28.6562964621489,44.32327211293178,NAVODARI,NDI,ROU,4.0,POINT (28.6562964621489 44.32327211293178),NAVODARI
28.30928673969646,44.2455122193261,MEDGIDIA,MED,ROU,,POINT (28.30928673969646 44.2455122193261),
27.96825246413789,44.68078261503729,HARSOVA,RVA,ROU,,POINT (27.96825246413789 44.68078261503729),
28.39800652165901,44.17526835915081,BASARABI,BAB_2,ROU,,POINT (28.39800652165901 44.17526835915081),
27.98632121057922,45.28494119078881,BRAILA,BRA,ROU,43.0,POINT (27.98632121057922 45.28494119078881),
25.96651323957957,43.87275467337622,GIURGIU,GRG,ROU,,POINT (25.96651323957957 43.87275467337622),
28.09605922647431,45.44294340735728,GALATI,GAL,ROU,49.0,POINT (28.09605922647431 45.44294340735728),
27.28976054329505,44.21181263520207,CALARASI,CAS,ROU,,POINT (27.28976054329505 44.21181263520207),
24.34767188240081,57.7545068201088,SALACGRIVA,SAL,LVA,,POINT (24.34767188240081 57.7545068201088),
27.29650893480555,36.89337962939086,KOS,KGS,GRC,2.0,POINT (27.29650893480555 36.89337962939086),KOS_1
13.51856595649205,45.43770387656367,UMAG - PASSENGER PORT,UMG,HRV,,POINT (13.51856595649205 45.43770387656367),
33.9368427222548,35.13177137702148,FAMAGUSTA,FMG,CYP,95.0,POINT (33.9368427222548 35.13177137702148),
33.3281055954965,35.34188734153729,KYRENIA,KYR,CYP,3.0,POINT (33.3281055954965 35.34188734153729),
4.200354565799492,51.11845324308496,TEMSE,TSE,BEL,,POINT (4.200354565799492 51.11845324308496),
2.933860280098831,51.22930067923326,OOSTENDE,OST,BEL,1.0,POINT (2.933860280098831 51.22930067923326),
5.63670796815,50.65725044820404,LIEGE (LUIK),LGG,BEL,,POINT (5.63670796815 50.65725044820404),
22.94140981224948,39.35791259744116,VOLOS (BOLOS),VOL_2,GRC,7.0,POINT (22.94140981224948 39.35791259744116),VOLOS (BOLOS)
27.69025569872207,42.42233864542158,SOZOPOL,SOZ,BGR,,POINT (27.69025569872207 42.42233864542158),
27.46331596388965,42.48623725803296,BURGAS,BOJ,BGR,323.0,POINT (27.46331596388965 42.48623725803296),BURGAS
27.90504610833796,43.19660164578919,VARNA_0,VAR,BGR,268.0,POINT (27.90504610833796 43.19660164578919),
20.44113906253149,38.19941219728126,LIXOURI (LIXOIRI KEFALLINIAS),LIX,GRC,,POINT (20.44113906253149 38.19941219728126),
24.12503623370661,38.62735647813977,KYMI (KIMI),KIM,GRC,1.0,POINT (24.12503623370661 38.62735647813977),
21.14867236869017,37.93661974218563,KYLINI (KILINI),KYL,GRC,3.0,POINT (21.14867236869017 37.93661974218563),
25.883743229429,40.84268899824036,ALEXANDROUPOLIS (ALEXANDROIPOLIS),AXD,GRC,6.0,POINT (25.883743229429 40.84268899824036),ALEXANDROUPOLI
2.747573550927637,51.14201159762311,NIEUWPOORT,NIE,BEL,,POINT (2.747573550927637 51.14201159762311),
-0.490863184258385,38.33573315953021,ALICANTE,ALC,ESP,67.0,POINT (-0.4908631842583852 38.33573315953021),ALICANTE
-0.225300177353087,50.82914388070068,SHOREHAM,SHO,GBR,,POINT (-0.2253001773530875 50.82914388070068),
-2.252204893086573,43.29706429429077,ZUMAYA,ZMY,ESP,,POINT (-2.252204893086573 43.29706429429077),
1.228362340088181,41.1007299214881,TARRAGONA,TAR_1,ESP,825.0,POINT (1.228362340088181 41.1007299214881),
-0.686289306676781,37.97234973171208,TORREVIEJA,TOR,ESP,18.0,POINT (-0.6862893066767809 37.97234973171208),
-0.322482808101247,39.442292666523,VALENCIA,VLC,ESP,3043.0,POINT (-0.3224828081012467 39.442292666523),
0.474732108174808,40.46224123130177,VINAROZ,VZR,ESP,,POINT (0.4747321081748085 40.46224123130177),
-7.596017301462586,43.67671367358263,VIVEIRO,VIV,ESP,3.0,POINT (-7.596017301462586 43.67671367358263),
-4.817531631893306,56.0610804036905,FASLANE,FAS,GBR,10.0,POINT (-4.817531631893306 56.0610804036905),
-4.867031733797543,55.74214671787034,HUNTERSTON,HST,GBR,,POINT (-4.867031733797543 55.74214671787034),
-4.410065544437036,52.88633858923221,PWLLHELI,PWL,GBR,,POINT (-4.410065544437036 52.88633858923221),
-3.264483796782424,53.31907859865395,MOSTYN,CHE_2,GBR,5.0,POINT (-3.264483796782424 53.31907859865395),
-4.707392037328457,50.34435065382399,PAR,PAR_2,GBR,,POINT (-4.707392037328457 50.34435065382399),
-2.70543313053482,51.50551056414756,AVONMOUTH,AVO,GBR,110.0,POINT (-2.70543313053482 51.50551056414756),
-1.277122328227717,60.4651348718861,SULLOM VOE,SUL_1,GBR,16.0,POINT (-1.277122328227717 60.4651348718861),
-2.080360050182488,57.14294859813858,ABERDEEN,ABD,GBR,142.0,POINT (-2.080360050182488 57.14294859813858),ABERDEEN_1
-8.248543698019418,43.36052776308345,SADA,SAD,ESP,85.0,POINT (-8.248543698019418 43.36052776308345),
1.824639663367733,41.23378649176252,SITGES,SIT,ESP,,POINT (1.824639663367733 41.23378649176252),
-0.560771762789832,38.18925706134533,SANTA POLA,SPO,ESP,,POINT (-0.5607717627898323 38.18925706134533),
-2.716656393465813,43.41930201251798,BERMEO,BRM,ESP,2.0,POINT (-2.716656393465813 43.41930201251798),
0.115110829501899,38.8432705506557,DENIA,DNA,ESP,1.0,POINT (0.1151108295018989 38.8432705506557),
1.442009044529076,38.91268913092831,IBIZA,IBZ,ESP,9.0,POINT (1.442009044529076 38.91268913092831),IBIZA
-0.212836887464578,39.65426241964557,SAGUNTO,SAG,ESP,144.0,POINT (-0.212836887464578 39.65426241964557),
-1.917837437540742,43.31989361430785,PASAJES,PAS,ESP,91.0,POINT (-1.917837437540742 43.31989361430785),
-8.391782445304065,43.35945878806687,LA CORUNA,LCG,ESP,83.0,POINT (-8.391782445304065 43.35945878806687),LA CORUNA
2.311639408397653,41.47498047981419,MASNOU,MSN,ESP,,POINT (2.311639408397653 41.47498047981419),
3.179517663667685,42.25400498796905,ROSAS,ROS_1,ESP,2.0,POINT (3.179517663667685 42.25400498796905),
-2.417185441209605,43.32382885308319,ONDARROA,OND,ESP,,POINT (-2.417185441209605 43.32382885308319),
0.601943470426057,40.616612770844,SAN CARLOS DE LA RAPITA,SCR,ESP,,POINT (0.6019434704260566 40.616612770844),
4.265386075607177,39.89313854323855,MAHON,MAH,ESP,9.0,POINT (4.265386075607177 39.89313854323855),
-0.100448372189426,50.81117025591448,BRIGHTON,BSH,GBR,,POINT (-0.1004483721894262 50.81117025591448),
0.329232161034105,50.79416283688806,EASTBOURNE,EBO,GBR,,POINT (0.3292321610341047 50.79416283688806),
-2.293847147488413,53.47133551684152,MANCHESTER,MNC,GBR,,POINT (-2.293847147488413 53.47133551684152),
-3.506872101489005,54.71158718257176,MARYPORT,MRY,GBR,,POINT (-3.506872101489005 54.71158718257176),
1.416709309132243,51.32810977289605,RAMSGATE,RMG,GBR,9.0,POINT (1.416709309132243 51.32810977289605),
-2.752876823410335,53.32921898815225,RUNCORN,RUN,GBR,4.0,POINT (-2.752876823410335 53.32921898815225),
-3.789871542122925,51.58116418608803,PORT TALBOT,PTB,GBR,21.0,POINT (-3.789871542122925 51.58116418608803),
-2.760734026701807,51.48945780780397,PORTISHEAD,PTH,GBR,,POINT (-2.760734026701807 51.48945780780397),
-2.988402987904183,51.55952547622721,NEWPORT,NPT,GBR,46.0,POINT (-2.988402987904183 51.55952547622721),
-2.744533463986719,53.76023694884972,PRESTON,PRE,GBR,,POINT (-2.744533463986719 53.76023694884972),
-3.917236422007281,51.61647606806013,SWANSEA,SWA,GBR,3.0,POINT (-3.917236422007281 51.61647606806013),
-3.157205729349843,51.46382281360085,CARDIFF,CDF,GBR,38.0,POINT (-3.157205729349843 51.46382281360085),
-2.451426313908273,50.58023918691615,WEYMOUTH,WEY,GBR,1.0,POINT (-2.451426313908273 50.58023918691615),
-3.592027293680523,54.54903257767063,WHITEHAVEN,WHV,GBR,,POINT (-3.592027293680523 54.54903257767063),
-3.56271412197285,54.65048328095085,WORKINGTON,WOR,GBR,,POINT (-3.56271412197285 54.65048328095085),
-3.173555721490184,51.45114830390845,PENARTH,PNH,GBR,1.0,POINT (-3.173555721490184 51.45114830390845),
-4.679467280480213,55.5464353449878,TROON,TRN,GBR,7.0,POINT (-4.679467280480213 55.5464353449878),
-1.531411611002476,50.75657516511533,LYMINGTON,LYM,GBR,,POINT (-1.531411611002476 50.75657516511533),
-5.808338388489728,54.84828156647266,LARNE,LAR,GBR,56.0,POINT (-5.808338388489728 54.84828156647266),
-3.217697258473398,54.10345412985893,BARROW-IN-FURNESS,BIF,GBR,7.0,POINT (-3.217697258473398 54.10345412985893),
-1.50358079453169,55.12509758826436,BLYTH,BLY,GBR,10.0,POINT (-1.50358079453169 55.12509758826436),
-2.608257299456718,51.44887567165832,BRISTOL,BRS,GBR,,POINT (-2.608257299456718 51.44887567165832),
-3.509160328384933,50.3996380407785,BRIXHAM,BRX_1,GBR,20.0,POINT (-3.509160328384933 50.3996380407785),
-5.055953684363095,50.15310586142273,FALMOUTH,FAL,GBR,66.0,POINT (-5.055953684363095 50.15310586142273),
-4.632608881106604,53.31692992459826,HOLYHEAD,HLY,GBR,12.0,POINT (-4.632608881106604 53.31692992459826),
-2.001183374739323,57.69316305095159,FRASERBURGH,FRB,GBR,,POINT (-2.001183374739323 57.69316305095159),
-4.174835406547118,51.67444241025213,LLANELLI,LLN,GBR,,POINT (-4.174835406547118 51.67444241025213),
1.755977821353438,52.47439896857797,LOWESTOFT,LOW,GBR,6.0,POINT (1.755977821353438 52.47439896857797),
-4.857612198964749,55.77435449336392,FAIRLIE,FEE,GBR,1.0,POINT (-4.857612198964749 55.77435449336392),
-4.734453459766585,55.94493887773643,GREENOCK,GRK,GBR,2.0,POINT (-4.734453459766585 55.94493887773643),
-1.200462892041978,54.69346851728022,HARTLEPOOL,HTP,GBR,151.0,POINT (-1.200462892041978 54.69346851728022),
-0.877204437160192,53.69877049210904,GOOLE,GOO,GBR,,POINT (-0.8772044371601925 53.69877049210904),
-7.416912081133285,37.20356696334093,VILA REAL DE SANTO ANTONIO,VRE,PRT,,POINT (-7.416912081133285 37.20356696334093),
7.596314246369015,47.58659637615076,BASEL,BSL,CHE,,POINT (7.596314246369015 47.58659637615076),
13.56974757224773,41.22491516582213,GAETA,GAE,ITA,34.0,POINT (13.56974757224773 41.22491516582213),
12.22617399640147,41.77093703963926,FIUMICINO,FCO,ITA,27.0,POINT (12.22617399640147 41.77093703963926),
13.01859893796085,43.85179060165418,FANO,FAO,ITA,,POINT (13.01859893796085 43.85179060165418),
12.63150839362243,41.44717058384485,ANZIO,ANZ,ITA,,POINT (12.63150839362243 41.44717058384485),
8.314621453168456,40.56073273842,ALGHERO,AHO,ITA,3.0,POINT (8.314621453168456 40.56073273842),
11.78561644832538,42.09378783749502,CIVITAVECCHIA,CVV,ITA,449.0,POINT (11.78561644832538 42.09378783749502),CIVITAVECCHIA_1
9.33298054969672,44.30929143115863,CHIAVARI,CHX,ITA,,POINT (9.332980549696719 44.30929143115863),
15.09419863505559,37.49600602250044,CATANIA,CTA,ITA,115.0,POINT (15.09419863505559 37.49600602250044),
14.46869795240299,40.6924525929517,CASTELLAMMARE DI STABBIA,CAS_2,ITA,1.0,POINT (14.46869795240299 40.6924525929517),CASTELLAMMARE DI STABBIA
12.87899602275106,38.03192938267354,CASTELLAMMARE DEL GOLFO,CTR,ITA,,POINT (12.87899602275106 38.03192938267354),
16.28779255246378,41.32813145529956,BARLETTA,BLT,ITA,3.0,POINT (16.28779255246378 41.32813145529956),BARLETTA_1
15.11831386581293,36.67139833688052,PORTOPALO,PPL,ITA,,POINT (15.11831386581293 36.67139833688052),
14.22901664958887,37.06649181517397,GELA,GEA,ITA,35.0,POINT (14.22901664958887 37.06649181517397),
11.93978401156675,36.83336352672238,PANTELLERIA,PNL,ITA,1.0,POINT (11.93978401156675 36.83336352672238),
8.402463057357336,39.40285816037503,BUGGERRU,BUG,ITA,,POINT (8.402463057357336 39.40285816037503),
9.70351643264391,39.93635214156799,ARBATAX,ATX,ITA,,POINT (9.703516432643911 39.93635214156799),
9.531481642261518,41.13459770286082,PORT OF PORTO CERVO,PCE,ITA,,POINT (9.531481642261518 41.13459770286082),
17.12375380162584,39.0859537880543,CROTONE,CRV,ITA,4.0,POINT (17.12375380162584 39.0859537880543),
12.29186338716147,44.84411335885944,GORO,GOO_1,ITA,,POINT (12.29186338716147 44.84411335885944),
13.8858024330192,42.95651317332387,PORT OF SAN BENEDETTO DEL TRONTO,SDB,ITA,,POINT (13.8858024330192 42.95651317332387),
14.74518177480186,40.67301356576821,SALERNO,SAL_1,ITA,217.0,POINT (14.74518177480186 40.67301356576821),
14.22925581764406,42.46636222713789,PESCARA,PSR,ITA,,POINT (14.22925581764406 42.46636222713789),
12.9043286235651,43.92143507992531,PESARO,PES,ITA,,POINT (12.9043286235651 43.92143507992531),
14.41174869784095,42.35150953191179,ORTONA,OTN,ITA,61.0,POINT (14.41174869784095 42.35150953191179),
9.512428105743007,40.92381665749252,OLBIA (TERRANOVA),OLB,ITA,1.0,POINT (9.512428105743007 40.92381665749252),OLBIA (TERRANOVA)
12.66485602818187,41.45556011088919,NETTUNO,NTT,ITA,,POINT (12.66485602818187 41.45556011088919),
15.20917214426925,37.73117684158136,RIPOSTO HARBOR,RPT,ITA,,POINT (15.20917214426925 37.73117684158136),
15.65028613746892,38.12474891928595,REGGIO DI CALABRIA,REG,ITA,,POINT (15.65028613746892 38.12474891928595),
14.11109855837202,40.82996587387051,POZZUOLI,POZ,ITA,3.0,POINT (14.11109855837202 40.82996587387051),
8.396290459181191,39.19852900284136,PORTOVESME,PVE,ITA,25.0,POINT (8.396290459181191 39.19852900284136),
11.12764058486416,42.43622981816399,PORTO SANTO STEFANO,PSS,ITA,3.0,POINT (11.12764058486416 42.43622981816399),
13.53202226390391,37.28499076077532,PORTO EMPEDOCLE,PEM,ITA,41.0,POINT (13.53202226390391 37.28499076077532),
13.14643523818097,45.69886615586932,PORTO LIGNANO,PLI,ITA,,POINT (13.14643523818097 45.69886615586932),
12.57921724026914,37.65132346419706,MAZARA DEL VALLO,MAZ,ITA,,POINT (12.57921724026914 37.65132346419706),
12.43660035619988,37.78920725942891,MARSALA,MRA,ITA,,POINT (12.43660035619988 37.78920725942891),
8.265914876979819,44.13333671524292,LOANO,LOA,ITA,,POINT (8.265914876979819 44.13333671524292),
13.9738362929318,42.75329528348578,GIULIANOVA,GUI,ITA,,POINT (13.9738362929318 42.75329528348578),
13.2283722067956,45.7947284762261,PORTO NOGARO,PNG,ITA,27.0,POINT (13.2283722067956 45.7947284762261),
4.262725278611587,52.09893325165402,SCHEVENINGEN,SCE,NLD,13.0,POINT (4.262725278611587 52.09893325165402),
5.853588786652562,51.74539345731053,CUIJK,CUY,NLD,,POINT (5.853588786652562 51.74539345731053),
4.723455648077602,51.82742401555126,PAPENDRECHT,PAP_1_1,NLD,7.0,POINT (4.723455648077602 51.82742401555126),
7.424490487083511,43.73498671584639,MONTE-CARLO,MCM,MCO,4.0,POINT (7.424490487083511 43.73498671584639),MONTE-CARLO_1
4.121078606508611,51.82428943827352,HELLEVOETSLUIS,HSL,NLD,,POINT (4.121078606508611 51.82428943827352),
4.585600766224228,52.45841639608589,IJMUIDEN,IJM,NLD,107.0,POINT (4.585600766224228 52.45841639608589),
5.040849265388646,52.46053780455153,MONNICKENDAM,MNN,NLD,,POINT (5.040849265388646 52.46053780455153),
5.913621298577675,43.11808724281477,TOULON,TLN,FRA,10.0,POINT (5.913621298577675 43.11808724281477),LA SEYNE-SUR-MER_1
-2.741596400926849,48.52608378589615,LE LEGUE,LLG,FRA,,POINT (-2.741596400926849 48.52608378589615),
6.634757497674159,43.27147409255319,ST TROPEZ,STP,FRA,20.0,POINT (6.634757497674159 43.27147409255319),
6.777287209195585,43.41508836909825,ST RAPHAEL,SRL,FRA,,POINT (6.777287209195585 43.41508836909825),
-2.017620489223674,48.64531583851271,ST MALO,SML,FRA,14.0,POINT (-2.017620489223674 48.64531583851271),ST MALO
-1.031233032564023,45.61974111127535,ROYAN,RYN,FRA,,POINT (-1.031233032564023 45.61974111127535),
3.112572804604496,42.51836022265268,PORT VENDRES,POV,FRA,3.0,POINT (3.112572804604496 42.51836022265268),
-0.249179075679016,49.28018828246939,OUISTREHAM,OUI,FRA,48.0,POINT (-0.2491790756790158 49.28018828246939),
-0.955678722714141,45.94700216596034,ROCHEFORT,RCO,FRA,,POINT (-0.9556787227141406 45.94700216596034),
-4.10447324077708,47.96948126671534,QUIMPER,UIP,FRA,,POINT (-4.10447324077708 47.96948126671534),
4.008798176268015,51.44872510576559,HANSWEERT,HAN_1,NLD,,POINT (4.008798176268015 51.44872510576559),
4.005916137355493,51.51414875810169,WEMELDINGE,WED_1,NLD,,POINT (4.005916137355493 51.51414875810169),
5.468848813672195,52.25783755276307,NIJKERK,NKK,NLD,,POINT (5.468848813672195 52.25783755276307),
2.463892730099022,48.62750317417668,EVRY,EVR,FRA,,POINT (2.463892730099022 48.62750317417668),
1.865547837935227,50.96824577785874,CALAIS,CQF,FRA,167.0,POINT (1.865547837935227 50.96824577785874),
-3.911904166575057,47.87451919265669,CONCARNEAU,COC,FRA,,POINT (-3.911904166575057 47.87451919265669),
-1.112652562575866,44.74442881373336,ANDERNOS-LES-BAINS,ADB,FRA,,POINT (-1.112652562575866 44.74442881373336),
7.126935772644761,43.58671852359585,ANTIBES,ANT,FRA,6.0,POINT (7.126935772644761 43.58671852359585),
-1.148036729185377,44.66011207626848,ARCACHON,ARC,FRA,,POINT (-1.148036729185377 44.66011207626848),
4.613258758285894,51.80876529076307,ZWIJNDRECHT,ZWI,NLD,,POINT (4.613258758285894 51.80876529076307),
-1.488996830573673,43.51023781434156,BAYONNE,BAY,FRA,50.0,POINT (-1.488996830573673 43.51023781434156),
0.372194302198598,49.76200006571317,FECAMP,FEC,FRA,,POINT (0.3721943021985978 49.76200006571317),
1.086063319410226,49.92563055878568,DIEPPE,DPE,FRA,11.0,POINT (1.086063319410226 49.92563055878568),
-0.099810012801966,49.29342105345559,CABOURG,CAW,FRA,,POINT (-0.09981001280196571 49.29342105345559),
5.608881695052708,43.17167842829838,LA CIOTAT,LCT,FRA,,POINT (5.608881695052708 43.17167842829838),
13.07961238715095,37.50279756416297,SCIACCA,SCK,ITA,,POINT (13.07961238715095 37.50279756416297),
-5.357862988949996,36.13862678947475,GIBRALTAR,GIB,GIB,515.0,POINT (-5.357862988949996 36.13862678947475),
-1.598948366810645,48.83468955341353,GRANVILLE,GFR,FRA,,POINT (-1.598948366810645 48.83468955341353),
-1.782912849450058,43.36905298279622,HENDAYE,HEN_1,FRA,,POINT (-1.782912849450058 43.36905298279622),
-3.363035609269918,47.73499456208209,LORIENT,LRT,FRA,61.0,POINT (-3.363035609269918 47.73499456208209),
1.382786633763796,50.0611017886574,LE TREPORT,LTR,FRA,1.0,POINT (1.382786633763796 50.0611017886574),
-1.790433409562224,46.50118051082583,LES SABLES D'OLONNE,LSO,FRA,,POINT (-1.790433409562224 46.50118051082583),
1.751586216869258,48.97452310303731,LIMAY,LMY,FRA,,POINT (1.751586216869258 48.97452310303731),
4.036043061537038,51.82192262385237,GOERDEREEDE,GDR,NLD,,POINT (4.036043061537038 51.82192262385237),
6.820623759690641,53.45198832884308,EEMSHAVEN,EEM,NLD,82.0,POINT (6.820623759690641 53.45198832884308),
17.14720098228585,48.13335656953357,BRATISLAVA,BTS,SVK,,POINT (17.14720098228585 48.13335656953357),
6.202787173486446,53.40872050507516,LAUWERSOOG,LAN,NLD,,POINT (6.202787173486446 53.40872050507516),
4.081475177591066,43.55640234878983,LA GRANDE-MOTTE,GDM,FRA,,POINT (4.081475177591066 43.55640234878983),
14.445595994984,40.75213007440406,TORRE ANNUNZIATA,TOA,ITA,38.0,POINT (14.445595994984 40.75213007440406),
18.78873121628281,54.6115988984369,HEL,HEL_2,POL,,POINT (18.78873121628281 54.6115988984369),
19.07103537509896,47.5532343377597,UJPEST,UPS,HUN,,POINT (19.07103537509896 47.5532343377597),
19.0674416044909,47.44331113540328,CSEPEL,CPE,HUN,,POINT (19.0674416044909 47.44331113540328),
19.05029892356904,47.54302955023299,BUDAPEST,BUD,HUN,,POINT (19.05029892356904 47.54302955023299),
15.55495382181694,54.18227433366723,KOLOBRZEG (KOLOBRZEG),KOL_1,POL,,POINT (15.55495382181694 54.18227433366723),
19.67630397131712,52.53475864059109,PLOCK,PLO,POL,,POINT (19.67630397131712 52.53475864059109),
18.41614408511551,54.79476542712074,WLADYSLAWOWO,WLA,POL,,POINT (18.41614408511551 54.79476542712074),
16.85333838049132,54.58597599580946,USTKA,UST,POL,,POINT (16.85333838049132 54.58597599580946),
16.38036741208604,54.43905576276538,DARLOWO (DARLOWO),DAR,POL,,POINT (16.38036741208604 54.43905576276538),
14.07127719075266,50.66216741387478,USTI NAD LABEM,ULN,CZE,,POINT (14.07127719075266 50.66216741387478),
-3.968158229864385,48.72167947498858,ROSCOFF,ROS_2,FRA,27.0,POINT (-3.968158229864385 48.72167947498858),ROSCOFF
0.758805273633425,49.51913913358793,ST WANDRILLE,SWD,FRA,12.0,POINT (0.7588052736334253 49.51913913358793),
10.24230422545613,43.8606652555659,VIAREGGIO,VIA,ITA,,POINT (10.24230422545613 43.8606652555659),
16.12598680537748,38.71858077667531,VIBO VALENTIA,VVA,ITA,11.0,POINT (16.12598680537748 38.71858077667531),
3.506135144270684,43.27984767678863,LE CAP D'AGDE,AGK,FRA,,POINT (3.506135144270684 43.27984767678863),
2.279047124040148,48.94110176801826,GENNEVILLIERS,GVL,FRA,,POINT (2.279047124040148 48.94110176801826),
-1.861578471363125,49.55222523407905,DIELETTE,DIL,FRA,,POINT (-1.861578471363125 49.55222523407905),
3.051126614384805,43.02171125631659,PORT LA NOUVELLE,NOU,FRA,1.0,POINT (3.051126614384805 43.02171125631659),PORT LA NOUVELLE
5.149372657865708,43.45976693805205,ETANG-DE-BERRE,ETB,FRA,2.0,POINT (5.149372657865708 43.45976693805205),
5.707111632440341,52.84110417933907,LEMMER,LMR,NLD,,POINT (5.707111632440341 52.84110417933907),
-2.348016846206243,46.72669658047562,PORT-JOINVILLE (ILE D\u2022YEU),PRJ,FRA,,POINT (-2.348016846206243 46.72669658047562),
15.00296165453103,42.00439644072295,TERMOLI,TMI,ITA,1.0,POINT (15.00296165453103 42.00439644072295),
16.55,43.38333333333335,SUPETAR,SUP,HRV,,POINT (16.55 43.38333333333335),
17.17900870000014,43.12211120000006,SUCURAJ - PASSENGER PORT,SUC,HRV,,POINT (17.17900870000014 43.12211120000006),
16.43333333333337,43.55,KASTEL SUCURAC,SUR,HRV,15.0,POINT (16.43333333333337 43.55),
16.46715317810086,43.5318700632956,VRANJIC,VRN,HRV,57.0,POINT (16.46715317810086 43.5318700632956),
16.3645462,43.36411470000007,STOMORSKA,STM,HRV,,POINT (16.3645462 43.36411470000007),
15.91666666666669,43.81666666666672,SKRADIN,SRD,HRV,,POINT (15.91666666666669 43.81666666666672),
16.88290620000004,43.28394720000006,SUMARTIN,SMN,HRV,,POINT (16.88290620000004 43.28394720000006),
16.34579470000008,43.49563420000007,SLATINE,SLT,HRV,,POINT (16.34579470000008 43.49563420000007),
17.88220572085982,42.78412215154245,SLANO,SLA,HRV,,POINT (17.88220572085982 42.78412215154245),
17.39975112275141,42.91712929641466,TRSTENIK,TRK,HRV,,POINT (17.39975112275141 42.91712929641466),
16.71666666666664,42.96666666666667,VELA LUKA - PASSENGER PORT,VLK,HRV,,POINT (16.71666666666664 42.96666666666667),
15.9,43.73333333333335,SIBENIK,SIB,HRV,2.0,POINT (15.9 43.73333333333335),
16.6,43.18333333333339,STARI GRAD,SGD,HRV,1.0,POINT (16.6 43.18333333333339),
17.91666666666669,42.71666666666667,SUDJURADJ,SDR_1,HRV,,POINT (17.91666666666669 42.71666666666667),
17.7,42.83333333333334,STON,STO_1,HRV,,POINT (17.7 42.83333333333334),
16.25,43.51666666666668,TROGIR,TRO,HRV,9.0,POINT (16.25 43.51666666666668),
15.78333333333336,43.76666666666668,VODICE,VDC_1,HRV,,POINT (15.78333333333336 43.76666666666668),
14.70106632478866,45.16878569220768,CRIKVENICA,CRA,HRV,,POINT (14.70106632478866 45.16878569220768),
14.91837520000013,44.15405070000006,BOZAVA,BZA,HRV,,POINT (14.91837520000013 44.15405070000006),
13.75067154089686,44.91778407122942,BRIJUNI (BRIONI),BRI_1,HRV,,POINT (13.75067154089686 44.91778407122942),
15.0,44.06666666666672,BRBINJ / LUCINA,BRB,HRV,,POINT (15 44.06666666666672),
15.45,43.93333333333339,BIOGRAD NA MORU,BNM,HRV,,POINT (15.45 43.93333333333339),
14.76705632245543,44.96707828579443,BASKA,BAS,HRV,,POINT (14.76705632245543 44.96707828579443),
14.53333333333333,45.3,BAKAR,BAK,HRV,11.0,POINT (14.53333333333333 45.3),
13.55542470000003,45.31699220000007,ANTENAL,ATL,HRV,,POINT (13.55542470000003 45.31699220000007),
16.83333333333337,42.75,UBLI,UBL,HRV,,POINT (16.83333333333337 42.75),
14.94997520000004,44.58069070000002,ZIGLJEN,ZGL,HRV,,POINT (14.94997520000004 44.58069070000002),
17.6,42.73333333333341,SOBRA,SBR,HRV,,POINT (17.6 42.73333333333341),
17.26948649736246,43.0107389567228,TRPANJ,TRJ,HRV,3.0,POINT (17.26948649736246 43.0107389567228),
15.83447901646861,43.69895863791561,ZLARIN,ZLR,HRV,,POINT (15.83447901646861 43.69895863791561),
16.20398920000005,43.06574670000003,VIS - PASSENGER PORT,VIS,HRV,,POINT (16.20398920000005 43.06574670000003),VIS - PASSENGER PORT
17.1,42.98333333333341,VIGANJ,VGN,HRV,1.0,POINT (17.1 42.98333333333341),
15.96779420031649,43.52871706493079,ROGOZNICA,RGN,HRV,,POINT (15.96779420031649 43.52871706493079),
17.13333333333333,42.95,KORCULA,KOR,HRV,,POINT (17.13333333333333 42.95),
15.79817020000004,43.7186647,PRVIC,PRV,HRV,,POINT (15.79817020000004 43.7186647),
18.2161733608001,42.5800910181496,CAVTAT,CVT,HRV,,POINT (18.2161733608001 42.5800910181496),
15.23071289,44.11627197,ZADAR - PASSENGER PORT,ZAD_1,HRV,2.0,POINT (15.23071289 44.11627197),
16.68333333333334,43.18333333333339,VRBOSKA,VRS,HRV,,POINT (16.68333333333334 43.18333333333339),
13.60018965,45.15062637,VRSAR,VRR,HRV,,POINT (13.60018965 45.15062637),
15.50090704,43.86137062,VRGADA,VRG,HRV,,POINT (15.50090704 43.86137062),
14.51655168,44.51659395,VELI LOSINJ,VLN,HRV,,POINT (14.51655168 44.51659395),
14.5,45.03333333,VALBISKA,VLB,HRV,,POINT (14.5 45.03333333),
14.25,44.63333333,UNIJE,UNJ,HRV,1.0,POINT (14.25 44.63333333),
14.1,44.96666667,TUNARICA,TNR,HRV,1.0,POINT (14.1 44.96666667),KOROMACNO - CEMENT FACTORY
15.64349365,43.78369141,TISNO,TNO,HRV,,POINT (15.64349365 43.78369141),
15.41955624,43.92138735,TKON,TKN,HRV,,POINT (15.41955624 43.92138735),
14.91737996,44.9282767,SVETI JURAJ,SVJ,HRV,,POINT (14.91737996 44.9282767),
14.6744807,45.0812397,VRBNIK,VRK,HRV,,POINT (14.6744807 45.0812397),
17.56666666666669,42.95,KLEK,KLK,HRV,2.0,POINT (17.56666666666669 42.95),
17.48333333333338,43.01666666666668,BLACE,BLE,HRV,,POINT (17.48333333333338 43.01666666666668),
15.78474270000009,43.73438870000001,PRVIC SEPURINE,PRS_1,HRV,,POINT (15.78474270000009 43.73438870000001),
17.68333333333334,42.81666666666669,PRAPRATNO,PRP,HRV,,POINT (17.68333333333334 42.81666666666669),
15.92327022519251,43.58932113610194,PRIMOSTEN,PRI,HRV,,POINT (15.92327022519251 43.58932113610194),
17.38333333333335,42.78333333333333,POLACE,PLA_6,HRV,,POINT (17.38333333333335 42.78333333333333),
16.73333333333335,43.35,PUCISCA,PCA,HRV,,POINT (16.73333333333335 43.35),
17.18333333333334,42.98333333333341,OREBIC,ORB,HRV,,POINT (17.18333333333334 42.98333333333341),
15.78333333333336,43.68333333333339,OBONJAN,ONJ,HRV,,POINT (15.78333333333336 43.68333333333339),
16.70342926668513,43.43411443135753,OMIS,OMS,HRV,,POINT (16.70342926668513 43.43411443135753),
16.45,43.33333333333334,MILNA,MIL,HRV,,POINT (16.45 43.33333333333334),
17.64621925319256,43.05105972310199,METKOVIC - CARGO PORT,MET,HRV,,POINT (17.64621925319256 43.05105972310199),
17.02022751014542,43.28626797639825,MAKARSKA,MAK,HRV,,POINT (17.02022751014542 43.28626797639825),
17.93345716051789,42.68340034881552,LOPUD,LPD,HRV,,POINT (17.93345716051789 42.68340034881552),
16.08333333333331,43.05,KOMIZA,KMZ,HRV,,POINT (16.08333333333331 43.05),
16.69753954618551,43.16645444712816,JELSA,JSA,HRV,,POINT (16.69753954618551 43.16645444712816),
15.85537670000016,43.7159082,JADRIJA,JDR,HRV,,POINT (15.85537670000016 43.7159082),
16.45,43.16666666666666,HVAR - PASSENGER PORT,HVA,HRV,,POINT (16.45 43.16666666666666),HVAR - PASSENGER PORT
17.252,43.152,DRVENIK,DRK,HRV,,POINT (17.252 43.152),
18.00179120000007,42.68310969999999,DONJE CELO,DNC,HRV,1.0,POINT (18.00179120000007 42.68310969999999),
16.65015029919249,43.25957870510194,BOL,BOL_1,HRV,,POINT (16.65015029919249 43.25957870510194),
16.29927420000004,43.39859570000004,ROGAC,RGC,HRV,,POINT (16.29927420000004 43.39859570000004),
15.43908691,44.29351807,STARIGRAD,SGR,HRV,,POINT (15.43908691 44.29351807),
14.66888428,45.1506958,SILO,SLO,HRV,,POINT (14.66888428 45.1506958),
17.34387207,42.78771973,BLATO,BLA,HRV,,POINT (17.34387207 42.78771973),
14.8997,44.988934,SENJ,SEN,HRV,,POINT (14.8997 44.988934),
14.0529,45.025734,RASA,RAS,HRV,,POINT (14.0529 45.025734),
5.474966132,52.51108529,LELYSTAD,LEY,NLD,,POINT (5.474966132 52.51108529),
5.693706539,52.85847314,LEMSTERLAND,LEM,NLD,,POINT (5.693706539 52.85847314),
6.413330078,52.16552734,LOCHEM,LCH,NLD,,POINT (6.413330078 52.16552734),
14.30908203,44.51147461,SUSAK,SSK,HRV,,POINT (14.30908203 44.51147461),
14.55249023,45.20831299,OMISALJ,OMI,HRV,50.0,POINT (14.55249023 45.20831299),
14.28948975,45.31488037,OPATIJA,OPA,HRV,1.0,POINT (14.28948975 45.31488037),
15.05267334,44.44592285,PAG - PASSENGER PORT,PAG,HRV,,POINT (15.05267334 44.44592285),
14.16666667,45.13333333,PLOMIN,PLM,HRV,,POINT (14.16666667 45.13333333),
14.62927246,45.03271484,PUNAT,PNT,HRV,,POINT (14.62927246 45.03271484),
13.59790039,45.22827148,POREC - PASSENGER PORT,POR_2,HRV,,POINT (13.59790039 45.22827148),
15.19390869,44.07672119,PREKO - PASSENGER PORT,PRE_1,HRV,,POINT (15.19390869 44.07672119),
14.96839003,44.60057628,PRIZNA,PRN,HRV,,POINT (14.96839003 44.60057628),
14.28503706,45.13273739,POROZINA,PRZ,HRV,8.0,POINT (14.28503706 45.13273739),
14.76690674,44.75488281,RAB,RAB_2,HRV,,POINT (14.76690674 44.75488281),
14.15270996,45.07928467,RABAC,RBC,HRV,4.0,POINT (14.15270996 45.07928467),
15.16827393,43.93469238,SALI,SAL_2,HRV,,POINT (15.16827393 43.93469238),
14.69189453,44.37188721,SILBA,SIL,HRV,,POINT (14.69189453 44.37188721),
4.581298828,51.90509033,KRIMPEN AAN DEN IJSSEL,KRP,NLD,,POINT (4.581298828 51.90509033),
5.915283203,52.56207275,KAMPEN,KAM_2,NLD,,POINT (5.915283203 52.56207275),
6.808105469,52.24572754,HENGELO,HGL,NLD,,POINT (6.808105469 52.24572754),
6.090087891,52.58947754,HASSELT,HAS,NLD,,POINT (6.090087891 52.58947754),
4.300000068,52.08330148,DEN HAAG (S-GRAVENHAGE),HAG,NLD,,POINT (4.300000068 52.08330148),
4.638940177,52.37842129,HAARLEM,HAA_1,NLD,,POINT (4.638940177 52.37842129),
6.582885742,53.21789551,GRONINGEN,GRQ,NLD,,POINT (6.582885742 53.21789551),
14.7183802,45.1524107,SELCE,SLC,HRV,,POINT (14.7183802 45.1524107),
14.88269043,44.55133057,NOVALJA,NVL,HRV,,POINT (14.88269043 44.55133057),
13.57269287,45.31427002,NOVIGRAD - PASSENGER PORT,NVG,HRV,,POINT (13.57269287 45.31427002),
14.3979732,44.6660937,NEREZINE,NRZ,HRV,,POINT (14.3979732 44.6660937),
14.40429688,44.95648193,CRES,CRS_1,HRV,1.0,POINT (14.40429688 44.95648193),
13.81666667,44.93333333,FAZANA,FNA,HRV,,POINT (13.81666667 44.93333333),
14.76647949,44.27227783,IST,IST,HRV,,POINT (14.76647949 44.27227783),
14.89807129,44.69970703,JABLANAC,JAB,HRV,,POINT (14.89807129 44.69970703),
15.06549072,44.49267578,KARLOBAG,KAB,HRV,,POINT (15.06549072 44.49267578),
14.63333333,45.15,KLIMNO,KMN,HRV,,POINT (14.63333333 45.15),
15.71666667,43.68333333,KAPRIJE,KPR,HRV,,POINT (15.71666667 43.68333333),
14.58587647,45.02368164,KRK,KRK,HRV,,POINT (14.58587647 45.02368164),
14.1191297,44.9658512,KOROMACNO - CEMENT FACTORY,KRM,HRV,1.0,POINT (14.1191297 44.9658512),KOROMACNO - CEMENT FACTORY
14.73333333,44.83333333,LOPAR,LPR,HRV,,POINT (14.73333333 44.83333333),
14.52667236,45.12628174,MALINSKA,MAL,HRV,,POINT (14.52667236 45.12628174),
15.55,44.21666667,MASLENICA,MAS,HRV,,POINT (15.55 44.21666667),
14.8606705,44.70403911,MISNJAK,MNK,HRV,,POINT (14.8606705 44.70403911),
14.25531006,45.2376709,MOSCENICKA DRAGA,MOD,HRV,1.0,POINT (14.25531006 45.2376709),
14.4494578,44.98179037,MERAG,MRG,HRV,,POINT (14.4494578 44.98179037),
15.66471274,43.664347,MUNA NA ZIRJU,MRJ,HRV,,POINT (15.66471274 43.664347),
14.41666667,44.81666667,MARTINSCICA,MTA,HRV,,POINT (14.41666667 44.81666667),
15.59228516,43.82312012,MURTER,MUR,HRV,,POINT (15.59228516 43.82312012),
14.78808594,45.12567139,NOVI VINODOLSKI,NVD,HRV,,POINT (14.78808594 45.12567139),
16.43792697,43.16833333,PORT OF HVAR,HVA_1,HRV,5.0,POINT (16.43792697 43.16833333),HVAR - PASSENGER PORT
4.200073242,51.7835083,MIDDELHARNIS,MIH,NLD,,POINT (4.200073242 51.7835083),
5.437678,51.805399,LITH,LIT,NLD,,POINT (5.437678 51.805399),
4.536786079,51.66355896,KLUNDERT,KLU,NLD,,POINT (4.536786079 51.66355896),
5.285522461,51.70507813,S-HERTOGENBOSCH,HTB,NLD,,POINT (5.285522461 51.70507813),
4.877319336,51.81890869,HARDINXVELD-GIESSENDAM,HRX,NLD,2.0,POINT (4.877319336 51.81890869),WERKENDAM
4.704202652,51.70993042,HOOGE EN LAAGE ZWALUWE,HOZ,NLD,,POINT (4.704202652 51.70993042),
4.653076172,51.85528564,HENDRIK-IDO-AMBACHT,HIA,NLD,,POINT (4.653076172 51.85528564),
4.864318848,51.70770264,GEERTRUIDENBERG,GTB,NLD,,POINT (4.864318848 51.70770264),
4.625671387,51.78070068,S-GRAVENDEEL,GRA,NLD,86.0,POINT (4.625671387 51.78070068),
4.974121094,51.82629394,GORINCHEM,GOR,NLD,,POINT (4.974121094 51.82629394),
5.967285156,51.68847656,GENNEP,GEN,NLD,,POINT (5.967285156 51.68847656),
4.4654005,51.6371345,FIJNAART EN HEIJNINGE,FFJ,NLD,,POINT (4.4654005 51.6371345),
7.76,36.91,ANNABA,ANN,DZA,101.0,POINT (7.76 36.91),
2.187396938,36.61083333,PORT OF CHERCHELL,CHE_1_1,DZA,,POINT (2.187396938 36.61083333),
5.855102539,51.85089111,NIJMEGEN,NIJ,NLD,,POINT (5.855102539 51.85089111),
4.846679687,51.65228272,OOSTERHOUT,OOS,NLD,,POINT (4.846679687 51.65228272),
5.547912598,51.80670166,OSS,OSS,NLD,,POINT (5.547912598 51.80670166),
1.3061,36.518134,TENES,TEN,DZA,18.0,POINT (1.3061 36.518134),
3.8797,36.923534,DELLYS,DEL,DZA,,POINT (3.8797 36.923534),
-0.3053,35.850734,ARZEW,AZW,DZA,235.0,POINT (-0.3053 35.850734),
-0.6488,35.718034,ORAN,ORN,DZA,265.0,POINT (-0.6488 35.718034),
3.063903809,36.78668213,ALGIERS,ALG_2,DZA,208.0,POINT (3.063903809 36.78668213),
5.983479915,53.19820976,BERGUM,BGU,NLD,,POINT (5.983479915 53.19820976),
4.782714844,51.91888428,BERGAMBACHT,BGB,NLD,,POINT (4.782714844 51.91888428),
4.662719727,52.46209717,BEVERWIJK,BEV,NLD,33.0,POINT (4.662719727 52.46209717),
6.85,53.31666667,APPINGEDAM,APP,NLD,,POINT (6.85 53.31666667),
5.61529541,53.44207764,AMELAND,AML,NLD,,POINT (5.61529541 53.44207764),
5.071538448,51.68211365,WAALWIJK,WLK,NLD,,POINT (5.071538448 51.68211365),
4.893493652,51.81750488,WERKENDAM,WKD,NLD,,POINT (4.893493652 51.81750488),WERKENDAM
6.024291992,51.59729004,VIERLINGSBEEK,VIE,NLD,,POINT (6.024291992 51.59729004),
4.0275945,51.8039205,STELLENDAM,STD,NLD,,POINT (4.0275945 51.8039205),
4.761474609,51.81890869,SLIEDRECHT,SLD,NLD,,POINT (4.761474609 51.81890869),
4.86529541,51.69708252,RAAMSDONK,RAA,NLD,,POINT (4.86529541 51.69708252),
4.460327148,51.58709717,OUD EN NIEUW GASTEL,OUG,NLD,,POINT (4.460327148 51.58709717),
7.7809,36.90793386799999,ANNABA_1,AAE,DZA,156.0,POINT (7.7809 36.90793386799999),
6.5651,37.01643386799998,COLLO,COL,DZA,,POINT (6.5651 37.01643386799998),
6.9071,36.89053386799998,SKIKDA,SKI,DZA,182.0,POINT (6.9071 36.89053386799998),
14.30029297,36.02410889,MGARR_1,MGA_1,MLT,1.0,POINT (14.30029297 36.02410889),
4.368896484,51.63568115,DINTELOORD EN PRINSENLAND,DIN,NLD,,POINT (4.368896484 51.63568115),
5.091491699,51.82489014,BRAKEL,BRK_1,NLD,,POINT (5.091491699 51.82489014),
4.781312288,51.58513624,BREDA,BRD,NLD,,POINT (4.781312288 51.58513624),
-1.8632,35.109934,GHAZAOUET,GHA,DZA,92.0,POINT (-1.8632 35.109934),
6.95,36.883333,SKIKDA_1,SKI_1,DZA,138.0,POINT (6.95 36.883333),
-1.383333,35.3,BENI SAF,BEN_4,DZA,,POINT (-1.383333 35.3),
-0.25,35.816667,AIN EL BYA,AIN,DZA,419.0,POINT (-0.25 35.816667),
-0.7,35.733333,MERS EL KEBIR,MER,DZA,6.0,POINT (-0.7 35.733333),
5.883333,36.816667,DJEN-DJEN,DJE,DZA,128.0,POINT (5.883333 36.816667),
5.783333,36.833333,JIJEL,JIJ,DZA,9.0,POINT (5.783333 36.833333),
5.543884277,53.18469238,FRANEKERADEEL,FRK,NLD,,POINT (5.543884277 53.18469238),
4.7,52.01666667,GOUDA,GOU,NLD,,POINT (4.7 52.01666667),
5.4992725,51.9093895,ECHTELD,ECD,NLD,,POINT (5.4992725 51.9093895),
6.021987438,51.94913483,DUIVEN,DUI_1_1,NLD,,POINT (6.021987438 51.94913483),
5.603271484,51.89807129,DRUTEN,DRU,NLD,,POINT (5.603271484 51.89807129),
16.65,43.45,DUGI RAT,DUR,HRV,,POINT (16.65 43.45),
13.633333,45.083333,ROVINJ_1,ROV_2,HRV,1.0,POINT (13.633333 45.083333),
14.066667,45.05,RASA_2,RAS_3,HRV,,POINT (14.066667 45.05),
6.149719238,52.2532959,DEVENTER,DEV,NLD,,POINT (6.149719238 52.2532959),
4.595703125,51.92730713,CAPELLE AAN DEN IJSSEL,CPI,NLD,,POINT (4.595703125 51.92730713),
-179.979736328,-16.783960342,SIGAVE,SIG_1,FJI,,POINT (-179.979736328 -16.783960342),
13.566667,45.533333,PIRAN,PIR_2,SVN,,POINT (13.566667 45.533333),
5.656677246,53.02868652,SNEEK,SNK,NLD,,POINT (5.656677246 53.02868652),
6.038696289,53.10852051,SMALLINGERLAND,SML_1,NLD,,POINT (6.038696289 53.10852051),
5.729125977,51.96887207,RENKUM,RNK,NLD,,POINT (5.729125977 51.96887207),
4.628112793,51.87609863,RIDDERKERK,RID,NLD,,POINT (4.628112793 51.87609863),
5.567321777,51.95452881,RHENEN,RHE,NLD,,POINT (5.567321777 51.95452881),
6.030491352,52.00556946,RHEDEN,RHD,NLD,,POINT (6.030491352 52.00556946),
4.63269043,51.93469238,OUDERKERK,OAI,NLD,,POINT (4.63269043 51.93469238),
4.683898926,51.89190674,NIEUW-LEKKERLAND,NLK,NLD,,POINT (4.683898926 51.89190674),
5.054077148,52.1282959,MAARSSEN,MSS,NLD,,POINT (5.054077148 52.1282959),
6.184692383,52.7020874,MEPPEL,MEP,NLD,,POINT (6.184692383 52.7020874),
5.787475586,53.19873047,LEEUWARDEN,LWR,NLD,,POINT (5.787475586 53.19873047),
123.6855,-16.11766613200001,YAMPI,YAM,AUS,3.0,POINT (123.6855 -16.11766613200001),
145.3521,-14.954666132,CAPE FLATTERY,CQP,AUS,35.0,POINT (145.3521 -14.954666132),
117.2149,-20.70566613199998,PORT WALCOTT,PWL_1,AUS,,POINT (117.2149 -20.70566613199998),
123.6123,-17.28086613200003,DERBY,DRB,AUS,,POINT (123.6123 -17.28086613200003),
152.8287,-25.25596613200003,URANGAN,URN,AUS,,POINT (152.8287 -25.25596613200003),
142.216667,-10.583333,THURSDAY ISLAND,TIS,AUS,,POINT (142.216667 -10.583333),
130.85,-12.466667,DARWIN,DRW,AUS,103.0,POINT (130.85 -12.466667),
136.7,-12.2,GOVE,GOV,AUS,,POINT (136.7 -12.2),
4.879516602,53.16308594,TEXEL,TEX,NLD,,POINT (4.879516602 53.16308594),
146.816667,-41.15,BEAUTY POINT,BYP,AUS,,POINT (146.816667 -41.15),
5.442871094,51.88549805,TIEL,TIE,NLD,,POINT (5.442871094 51.88549805),
115.5811,-20.64946613199999,VARANUS ISLAND,VAR_1,AUS,4.0,POINT (115.5811 -20.64946613199999),
138.4717,-35.10316613200001,PORT STANVAC,PST,AUS,,POINT (138.4717 -35.10316613200001),
151.6113,-32.97666613199999,NEWCASTLE,NTL,AUS,,POINT (151.6113 -32.97666613199999),
153.0141,-30.88236613200002,SOUTH WEST ROCKS,SWR,AUS,,POINT (153.0141 -30.88236613200002),
147.9559,-42.53666613199999,SPRING BAY,SPB,AUS,,POINT (147.9559 -42.53666613199999),
153.3487,-29.40806613199999,CLARENCE RIVER,CLR,AUS,,POINT (153.3487 -29.40806613199999),
115.4205,-20.86106613200002,BARROW ISLAND,BWB,AUS,,POINT (115.4205 -20.86106613200002),
151.2727,-23.848666132,GLADSTONE,GLT,AUS,,POINT (151.2727 -23.848666132),GLADSTONE
148.2447,-20.021466132,BOWEN,ZBO,AUS,,POINT (148.2447 -20.021466132),
145.7673,-16.90426613199998,CAIRNS,CNS,AUS,,POINT (145.7673 -16.90426613199998),
122.2269,-17.97556613199998,BROOME,BME,AUS,29.0,POINT (122.2269 -17.97556613199998),
146.1255,-17.59886613200001,MOURILYAN,MOU,AUS,15.0,POINT (146.1255 -17.59886613200001),
150.5475,-23.38146613200001,ROCKHAMPTON,ROK,AUS,,POINT (150.5475 -23.38146613200001),
128.1021,-15.45076613200001,WYNDHAM,WYN,AUS,39.0,POINT (128.1021 -15.45076613200001),
152.3677,-24.86076613199998,BUNDABERG,BDB,AUS,,POINT (152.3677 -24.86076613199998),
146.8231,-19.26206613199997,TOWNSVILLE,TSV,AUS,,POINT (146.8231 -19.26206613199997),TOWNSVILLE_1
118.5715,-20.30036613200002,PORT HEDLAND,PHE,AUS,1.0,POINT (118.5715 -20.30036613200002),PORT HEDLAND
113.6555,-24.893966132,CARNARVON,CVQ,AUS,,POINT (113.6555 -24.893966132),
149.1777,-21.143966132,MACKAY,MKY,AUS,,POINT (149.1777 -21.143966132),
117.2003,-20.63136613199998,POINT SAMSON,PSM_1,AUS,11.0,POINT (117.2003 -20.63136613199998),
146.3307,-18.530266132,LUCINDA,LUC,AUS,6.0,POINT (146.3307 -18.530266132),
150.8637,-23.58286613199999,PORT ALMA,PTL,AUS,43.0,POINT (150.8637 -23.58286613199999),
116.7049,-20.66416613199999,DAMPIER,DAM,AUS,58.0,POINT (116.7049 -20.66416613199999),
145.2371,-15.462366132,COOKTOWN,CTN,AUS,,POINT (145.2371 -15.462366132),
149.2729,-21.281666132,HAYPOINT,HPT,AUS,,POINT (149.2729 -21.281666132),
136.4185,-13.955766132,MILNER BAY,MIB,AUS,1.0,POINT (136.4185 -13.955766132),
117.1743,-20.684066132,ROEBOURNE,RBU,AUS,,POINT (117.1743 -20.684066132),
116.1639,-20.835766132,CAPE PRESTON,CPN,AUS,115.0,POINT (116.1639 -20.835766132),
114.1771,-22.32596613200002,EXMOUTH,PEX,AUS,,POINT (114.1771 -22.32596613200002),
115.0477,-21.39706613200002,SALADIN MARINE TERMINAL,SMT,AUS,,POINT (115.0477 -21.39706613200002),
148.0749,-19.887866132,ABBOT POINT,ABP,AUS,41.0,POINT (148.0749 -19.887866132),
147.116667,-41.45,LAUNCESTON,LST,AUS,,POINT (147.116667 -41.45),
137.766667,-33.016667,PORT BONYTHON,PBY,AUS,56.0,POINT (137.766667 -33.016667),
135.85,-34.716667,PORT LINCOLN,PLO_1,AUS,31.0,POINT (135.85 -34.716667),
146.833333,-41.133333,PORT DALRYMPLE,PTD,AUS,,POINT (146.833333 -41.133333),
137.766667,-34.966667,KLEIN POINT,KLP,AUS,,POINT (137.766667 -34.966667),
113.4,-26.083333,USELESS LOOP,USL,AUS,8.0,POINT (113.4 -26.083333),
114.183333,-21.816667,DAMPIER_1,DAM_1,AUS,,POINT (114.183333 -21.816667),
115.1,-21.65,ONSLOW,ONS,AUS,21.0,POINT (115.1 -21.65),
140.833333,-17.483333,KARUMBA,KRB,AUS,,POINT (140.833333 -17.483333),
149.3,-21.283333,SARINA,SAR,AUS,128.0,POINT (149.3 -21.283333),
113.383333,-24.216667,CAPE CUVIER,CCU,AUS,17.0,POINT (113.383333 -24.216667),
36.0923,-18.393566,LUABO,LBM,MOZ,,POINT (36.0923 -18.393566),
35.0713,-17.433766,NSANJE,NSA,MOZ,,POINT (35.0713 -17.433766),
35.0071,-17.383966,NSANJE_1,NSA_1,MOZ,,POINT (35.0071 -17.383966),
34.8995,-17.157766,NSANJE_2,NSA_2,MOZ,,POINT (34.8995 -17.157766),
35.3833,-17.817866,CAIA,CMZ,MOZ,,POINT (35.3833 -17.817866),
153.033333,-27.466667,BRISBANE,BNE,AUS,,POINT (153.033333 -27.466667),
138.016667,-33.183333,PORT PIRIE,PPI,AUS,54.0,POINT (138.016667 -33.183333),
137.616667,-33.933333,WALLAROO,WAL,AUS,2.0,POINT (137.616667 -33.933333),
137.766667,-35.033333,PORT GILES,PGI,AUS,10.0,POINT (137.766667 -35.033333),
133.65,-32.166667,THEVENARD,THE_2,AUS,,POINT (133.65 -32.166667),THEVENARD
117.883333,-35.033333,ALBANY,ALH,AUS,85.0,POINT (117.883333 -35.033333),
115.633333,-33.316667,BUNBURY,BUY,AUS,81.0,POINT (115.633333 -33.316667),
114.6,-28.783333,GERALDTON,GET_1,AUS,,POINT (114.6 -28.783333),GERALDTON_1
147.333333,-42.883333,HOBART,HBA,AUS,62.0,POINT (147.333333 -42.883333),
146.983333,-43.166667,PORT HUON,PHU_2,AUS,,POINT (146.983333 -43.166667),
145.283333,-40.766667,STANLEY,STA,AUS,,POINT (145.283333 -40.766667),
145.383333,-40.833333,PORT LATTA,PLA_1_1,AUS,25.0,POINT (145.383333 -40.833333),
145.95,-41.05,BURNIE,BWT,AUS,17.0,POINT (145.95 -41.05),
137.583333,-33.033333,WHYALLA,WYA,AUS,48.0,POINT (137.583333 -33.033333),
153.566667,-28.866667,BALLINA,BNK,AUS,,POINT (153.566667 -28.866667),
151.233333,-34.0,BOTANY BAY,BTB,AUS,,POINT (151.233333 -34),
150.916667,-34.483333,PORT KEMBLA,PKL,AUS,20.0,POINT (150.916667 -34.483333),
150.8,-35.116667,JERVIS BAY,JEB,AUS,,POINT (150.8 -35.116667),
150.166667,-35.7,BATEMANS BAY,BAT_2,AUS,,POINT (150.166667 -35.7),
149.916667,-37.066667,EDEN,QDN,AUS,15.0,POINT (149.916667 -37.066667),
146.466667,-38.7,WELSHPOOL,WEL,AUS,,POINT (146.466667 -38.7),
145.233333,-38.35,CRIB POINT,CRI,AUS,23.0,POINT (145.233333 -38.35),
144.966667,-37.833333,MELBOURNE,MEL,AUS,,POINT (144.966667 -37.833333),
144.366667,-38.15,GEELONG,GEX,AUS,1.0,POINT (144.366667 -38.15),
142.483333,-38.4,WARRNAMBOOL,WMB,AUS,,POINT (142.483333 -38.4),
141.6,-38.333333,PORTLAND,PTJ,AUS,,POINT (141.6 -38.333333),
137.633333,-35.633333,KINGSCOTE,KGC,AUS,,POINT (137.633333 -35.633333),
138.5,-34.85,PORT ADELAIDE,PAE,AUS,,POINT (138.5 -34.85),
151.2,-33.866667,SYDNEY,SYD,AUS,156.0,POINT (151.2 -33.866667),
35.6615,-18.023666,NSANJE_3,NSA_3,MOZ,,POINT (35.6615 -18.023666),
147.3079505,-42.82833333,PORT OF RISDON,RDN,AUS,5.0,POINT (147.3079505 -42.82833333),LUTANA
145.7755006,-16.92972222,CAIRNS SEAPORT,CNS_1,AUS,58.0,POINT (145.7755006 -16.92972222),
149.2237338,-21.10833333,MACKAY SEAPORT,MKY_1,AUS,115.0,POINT (149.2237338 -21.10833333),
115.1671967,-21.32333333,PORT OF AIRLIE ISLAND,AIR,AUS,,POINT (115.1671967 -21.32333333),
136.3870436,-15.6275,PORT OF BING BONG,BBG,AUS,,POINT (136.3870436 -15.6275),
139.737927,-17.55361111,PORT OF BURKETOWN,BUC,AUS,,POINT (139.737927 -17.55361111),
151.626384,-33.16,PORT OF CATHERINE HILL BAY,CHB,AUS,72.0,POINT (151.626384 -33.16),
153.0717903,-27.44472222,PORT OF FISHERMAN ISLANDS,FIS,AUS,38.0,POINT (153.0717903 -27.44472222),
145.2230271,-38.30666667,PORT OF HASTINGS,HAS_1,AUS,8.0,POINT (145.2230271 -38.30666667),
148.2393404,-40.21416667,PORT OF LADY BARRON,LAB,AUS,,POINT (148.2393404 -40.21416667),
6.114685059,52.50769043,ZWOLLE,ZWO,NLD,,POINT (6.114685059 52.50769043),
6.2,52.13333333,ZUTPHEN,ZUT,NLD,,POINT (6.2 52.13333333),
5.658508301,51.96130371,WAGENINGEN,WGW,NLD,,POINT (5.658508301 51.96130371),
5.083333333,53.3,VLIELAND,VLL,NLD,,POINT (5.083333333 53.3),
4.632507324,52.46569824,VELSEN,VEL,NLD,43.0,POINT (4.632507324 52.46569824),
5.078674316,52.1060791,UTRECHT,UTC,NLD,,POINT (5.078674316 52.1060791),
123.7437574,-16.14666667,PORT OF KOOLAN ISLAND,KOI,AUS,3.0,POINT (123.7437574 -16.14666667),
140.0071,-37.49386613199999,BEACHPORT,BCH,AUS,,POINT (140.0071 -37.49386613199999),
115.3373,-33.64976613200002,BUSSELTON,BUS,AUS,2.0,POINT (115.3373 -33.64976613200002),
153.1439,-30.30356613200001,COFFS HARBOUR,CFS,AUS,,POINT (153.1439 -30.30356613200001),
146.1819,-41.154866132,ULVERSTONE,ULV,AUS,,POINT (146.1819 -41.154866132),
153.1565,-26.80806613200002,CALOUNDRA HEAD,CAL_4,AUS,8.0,POINT (153.1565 -26.80806613200002),
159.0881,-31.54356613200002,LORD HOWE IS,LDH,AUS,,POINT (159.0881 -31.54356613200002),
145.2157,-38.37076613200003,WESTERNPORT,WEP,AUS,2.0,POINT (145.2157 -38.37076613200003),
153.0575,-30.89176613199999,TRIAL BAY,TRB,AUS,,POINT (153.0575 -30.89176613199999),
115.4923,-31.999966132,ROTTNEST ISLAND,RTS,AUS,,POINT (115.4923 -31.999966132),
144.1055,-39.87046613199999,KING BAY,KIB,AUS,,POINT (144.1055 -39.87046613199999),
152.9115,-31.43796613199999,PORT MACQUARIE,PQQ,AUS,,POINT (152.9115 -31.43796613199999),
152.9060071,-25.295,PORT OF MARYBOROUGH,MBH,AUS,,POINT (152.9060071 -25.295),
125.0037,-12.107266132,LANI,LAN_1,AUS,,POINT (125.0037 -12.107266132),
116.4509,-19.582366132,DAMPIER_2,DAM_2,AUS,7.0,POINT (116.4509 -19.582366132),
114.6471,-21.20946613199999,DAMPIER_3,DAM_3,AUS,,POINT (114.6471 -21.20946613199999),
130.1755,-11.480266132,BATHURST ISLAND,BRT,AUS,,POINT (130.1755 -11.480266132),
115.1385,-34.37956613199998,CAPE LEEUWIN,CLN,AUS,,POINT (115.1385 -34.37956613199998),
137.7953,-35.75186613199998,BALLAST HEAD,BAH,AUS,,POINT (137.7953 -35.75186613199998),
145.3273,-42.15806613199999,STRAHAN,SRN,AUS,,POINT (145.3273 -42.15806613199999),
146.8423,-41.189966132,BELL BAY,BEL_1,AUS,,POINT (146.8423 -41.189966132),
153.2887,-29.43326613200003,YAMBA,YBA,AUS,,POINT (153.2887 -29.43326613200003),
138.1957,-35.52366613200002,RAPID BAY,RAB_1_1,AUS,,POINT (138.1957 -35.52366613200002),
137.7665,-32.489066132,PORT AUGUSTA,PUG,AUS,,POINT (137.7665 -32.489066132),
35.9393,-18.289466,MARROMEU,RRM,MOZ,,POINT (35.9393 -18.289466),
35.1433,-17.318166,NSANJE_4,NSA_4,MOZ,,POINT (35.1433 -17.318166),
45.09483871499998,-19.78631940499997,MIANDRIVAZO,MIA,MDG,,POINT (45.09483871499998 -19.78631940499997),
44.68411266499999,-19.70851959499998,BELO SUR TSIRIBIHINA,BEL_2,MDG,,POINT (44.68411266499999 -19.70851959499998),
48.98340185500001,-19.26647251399999,ANDOVORANTO,AND_1,MDG,,POINT (48.98340185500001 -19.26647251399999),
49.1,-18.966667,ANDOVORANTO_1,AND_2,MDG,,POINT (49.1 -18.966667),
47.97786066999998,-14.87936870700003,ANTSOHIHY,ANT_1,MDG,,POINT (47.97786066999998 -14.87936870700003),
48.42491156900002,-20.50197777199998,SAHAVATO,SAH,MDG,,POINT (48.42491156900002 -20.50197777199998),
45.40404315699999,-19.68199329599997,MIANDRIVAZO_1,MIA_1,MDG,,POINT (45.40404315699999 -19.68199329599997),
49.28512915800002,-12.27508709300002,ANTSIRANANA,DIE,MDG,,POINT (49.28512915800002 -12.27508709300002),ANTSIRANANA_1
48.84383594299999,-13.091561383,PORT SAINT LOUIS,PSL_1,MDG,,POINT (48.84383594299999 -13.091561383),
43.4703,-22.967566132,MANOMBO,MOB,MDG,,POINT (43.4703 -22.967566132),
44.27219669599998,-20.29398627699999,MORONDAVA,MOQ,MDG,,POINT (44.27219669599998 -20.29398627699999),
43.66441987299999,-23.37751801600001,TOLIARA,TLE,MDG,6.0,POINT (43.66441987299999 -23.37751801600001),
44.0651,-25.00846613200002,ANDROKA,ADK,MDG,,POINT (44.0651 -25.00846613200002),
44.0143,-18.05936613199998,MAINTIRANO,MXT,MDG,,POINT (44.0143 -18.05936613199998),
48.8193,-19.91506613199999,MAHANORO,VVB,MDG,,POINT (48.8193 -19.91506613199999),
45.32824332299998,-16.10476559699998,SOALALA,DWB,MDG,,POINT (45.32824332299998 -16.10476559699998),
48.02051330900002,-22.14144467199998,MANAKARA,WVK,MDG,,POINT (48.02051330900002 -22.14144467199998),
50.15724323299997,-14.25297352699999,SAMBAVA,SVB,MDG,,POINT (50.15724323299997 -14.25297352699999),
50.28237428699998,-14.901109625,ANTALAHA,ANM,MDG,,POINT (50.28237428699998 -14.901109625),
47.830713446,-22.81379073099998,FARAFANGANA,RVA_1,MDG,,POINT (47.830713446 -22.81379073099998),
46.32286939699998,-15.72721467600002,MAHAJANGA,MJN,MDG,27.0,POINT (46.32286939699998 -15.72721467600002),
49.74022050799999,-15.43933880100002,MAROANTSETRA,WMN,MDG,,POINT (49.74022050799999 -15.43933880100002),
48.982709688,-19.33490415300002,VATOMANDRY,VAT,MDG,,POINT (48.982709688 -19.33490415300002),
43.37213404200003,-21.73584437199997,MOROMBE,MXM,MDG,,POINT (43.37213404200003 -21.73584437199997),
48.34596917200003,-21.242046125,MANANJARY,MNJ,MDG,,POINT (48.34596917200003 -21.242046125),
48.2657,-13.40016613199998,NOSSI-BE,NOS,MDG,5.0,POINT (48.2657 -13.40016613199998),
46.96574522600002,-25.06522580799998,TOLANARO,FTU,MDG,21.0,POINT (46.96574522600002 -25.06522580799998),
49.76825310100003,-16.16056339699998,MANANARA,WMR,MDG,,POINT (49.76825310100003 -16.16056339699998),
49.10826279100002,-18.954936417,ANDOVORANTO_2,AND_3,MDG,,POINT (49.10826279100002 -18.954936417),
49.283333,-12.266667,ANTSIRANANA_1,ANT_2,MDG,28.0,POINT (49.283333 -12.266667),ANTSIRANANA_1
49.016865795,-19.16199491399999,ANDOVORANTO_3,AND_4,MDG,,POINT (49.016865795 -19.16199491399999),
44.96671783300002,-19.73327434399999,BELO SUR TSIRIBIHINA_1,BEL_3,MDG,,POINT (44.96671783300002 -19.73327434399999),
48.46137517699998,-20.86536831900003,NOSY VARIKA,NOS_1,MDG,,POINT (48.46137517699998 -20.86536831900003),
49.18332934900002,-18.78311693500001,AMPASIMANOLOTRA,AMP,MDG,,POINT (49.18332934900002 -18.78311693500001),
48.32348000899998,-21.32882088000002,MANANJARY_1,MAN,MDG,,POINT (48.32348000899998 -21.32882088000002),
49.19992224499998,-18.70004468799999,AMPASIMANOLOTRA_1,AMP_1,MDG,,POINT (49.19992224499998 -18.70004468799999),
49.0,-19.2,ANDOVORANTO_4,AND_5,MDG,,POINT (49 -19.2),
49.25,-18.6,AMPASIMANOLOTRA_2,AMP_2,MDG,,POINT (49.25 -18.6),
50.00626430800003,-13.35419500299997,SAMBAVA_1,SAM,MDG,3.0,POINT (50.00626430800003 -13.35419500299997),
49.27667895799999,-18.52634750800001,AMPASIMANOLOTRA_3,AMP_3,MDG,,POINT (49.27667895799999 -18.52634750800001),
48.95,-19.23333,ANDOVORANTO_5,AND_6,MDG,,POINT (48.95 -19.23333),
48.45022877299999,-20.91668263100001,MANANJARY_2,MAN_1,MDG,,POINT (48.45022877299999 -20.91668263100001),
48.27624153599999,-21.41474935399998,MANANJARY_3,MAN_2,MDG,,POINT (48.27624153599999 -21.41474935399998),
49.31402852799999,-18.32635809300001,TOAMASINA_1,TOA_1,MDG,,POINT (49.31402852799999 -18.32635809300001),
48.531499494,-20.58721406199999,NOSY VARIKA_1,NOS_2,MDG,,POINT (48.531499494 -20.58721406199999),
48.47514588299998,-20.77491167900001,NOSY VARIKA_2,NOS_3,MDG,,POINT (48.47514588299998 -20.77491167900001),
49.32569108500002,-18.40813063399997,TOAMASINA_2,TOA_2,MDG,,POINT (49.32569108500002 -18.40813063399997),
49.39378020999999,-18.16979081,TOAMASINA_3,TOA_3,MDG,,POINT (49.39378020999999 -18.16979081),
49.06667,-19.06667,ANDOVORANTO_6,AND_7,MDG,,POINT (49.06667 -19.06667),
48.76862879700002,-20.00965308299999,MAHANORO_1,MAH_1,MDG,,POINT (48.76862879700002 -20.00965308299999),
48.49998544099998,-20.53334644400002,NOSY VARIKA_3,NOS_4,MDG,,POINT (48.49998544099998 -20.53334644400002),
44.54360256899997,-19.699894277,BELO SUR TSIRIBIHINA_2,BEL_4,MDG,,POINT (44.54360256899997 -19.699894277),
48.78487594699999,-19.99011869499998,MAHANORO_2,MAH_2,MDG,,POINT (48.78487594699999 -19.99011869499998),
48.26671777299998,-21.51642498799998,MANANJARY_4,MAN_3,MDG,,POINT (48.26671777299998 -21.51642498799998),
48.17846802100001,-21.65406504499998,MANANJARY_5,MAN_4,MDG,,POINT (48.17846802100001 -21.65406504499998),
49.14644287499999,-18.85831493,AMPASIMANOLOTRA_4,AMP_4,MDG,,POINT (49.14644287499999 -18.85831493),
48.833333,-13.083333,ANTSOHIMBONDRONA,ANT_3,MDG,,POINT (48.833333 -13.083333),
47.0,-25.033333,FORT DAUPHIN,FOR,MDG,1.0,POINT (47 -25.033333),
177.1293,-12.514866132,ROTUMA,RTA,FJI,,POINT (177.1293 -12.514866132),
179.3695,-16.43276613199998,MALAU,MAL_1,FJI,,POINT (179.3695 -16.43276613199998),
177.4483,-17.60836613200001,LAUTOKA,LTK,FJI,,POINT (177.4483 -17.60836613200001),LAUTOKA_2
178.8389,-17.680866132,LEVUKA,LEV,FJI,,POINT (178.8389 -17.680866132),
177.7643,-17.40566613200002,VATIA,VAT_1,FJI,,POINT (177.7643 -17.40566613200002),
177.3949,-17.684066132,VUDA,VUD,FJI,37.0,POINT (177.3949 -17.684066132),
177.45,-17.6,LAUTOKA_1,LAU,FJI,,POINT (177.45 -17.6),LAUTOKA_2
178.416667,-18.133333,SUVA_1_1,SUV_2_1,FJI,29.0,POINT (178.416667 -18.133333),SUVA_5
179.366667,-16.35,LAMBASA,LAM,FJI,5.0,POINT (179.366667 -16.35),
179.333333,-16.766667,LAMBASA_1,LAM_1,FJI,11.0,POINT (179.333333 -16.766667),
13.6519165,45.53387451,IZOLA,IZO,SVN,39.0,POINT (13.6519165 45.53387451),
13.590777,45.5142295,PORTOROZ,POW,SVN,,POINT (13.590777 45.5142295),
5.519782066,51.94743729,LIENDEN,LIE,NLD,,POINT (5.519782066 51.94743729),
177.4649047604582,-16.84200480582081,BA,BA,FJI,,POINT (177.4649047604582 -16.84200480582081),
20.99871826,56.53729248,LIEPAJA,LPX_1,LVA,47.0,POINT (20.99871826 56.53729248),
178.686485219,-16.99411004699999,LAMBASA_2,LAM_2,FJI,5.0,POINT (178.686485219 -16.99411004699999),
179.426592948,-17.35351583200003,LEVUKA_1,LEV_1,FJI,40.0,POINT (179.426592948 -17.35351583200003),
48.3,-13.4,HELL-VILLE,HEL_3,MDG,8.0,POINT (48.3 -13.4),
-179.992054,-16.789667,SIGAVE_1,SIG_2,FJI,,POINT (-179.992054 -16.789667),
178.83,-17.68,SUVA_2_1,SUV_3_1,FJI,,POINT (178.83 -17.68),
35.5447,-18.007966,NSANJE_5,NSA_5,MOZ,,POINT (35.5447 -18.007966),
35.3555,-17.69636613199998,NSANJE_6,NSA_6,MOZ,,POINT (35.3555 -17.69636613199998),
34.9777,-17.33116613200002,NSANJE_7,NSA_7,MOZ,,POINT (34.9777 -17.33116613200002),
36.2239,-18.66316613200001,QUELIMANE,QUE,MOZ,,POINT (36.2239 -18.66316613200001),
35.3777,-17.740866132,NSANJE_8,NSA_8,MOZ,,POINT (35.3777 -17.740866132),
36.2043,-18.572866132,QUELIMANE_1,QUE_1,MOZ,,POINT (36.2043 -18.572866132),
35.3073,-17.588966132,NSANJE_9,NSA_9,MOZ,,POINT (35.3073 -17.588966132),
35.0503,-17.43666613200003,NSANJE_10,NSA_10,MOZ,,POINT (35.0503 -17.43666613200003),
35.2125,-17.63506613200002,NSANJE_11,NSA_11,MOZ,,POINT (35.2125 -17.63506613200002),
32.6779,-26.34536613199998,BELA VISTA,BEL_5,MOZ,,POINT (32.6779 -26.34536613199998),
35.3777,-23.861366132,INHAMBANE,INH,MOZ,,POINT (35.3777 -23.861366132),
40.5101,-13.00486613200002,PEMBA,POL,MOZ,27.0,POINT (40.5101 -13.00486613200002),
40.5895,-12.34456613200001,IBO,IBO,MOZ,,POINT (40.5895 -12.34456613200001),
40.5191,-14.17216613199997,MEMBA,MEM,MOZ,,POINT (40.5191 -14.17216613199997),
40.7311,-15.03446613199998,MOCAMBIQUE,MZQ,MOZ,,POINT (40.7311 -15.03446613199998),
40.6653,-14.55886613199999,NACALA,MNC_1,MOZ,1.0,POINT (40.6653 -14.55886613199999),NACALA_1
38.1341,-17.265366132,PEBANE,PEB,MOZ,7.0,POINT (38.1341 -17.265366132),
39.2367,-16.76346613200002,MOMA,MMW,MOZ,,POINT (39.2367 -16.76346613200002),
39.9145,-16.246566132,ANGOCHE,ANO,MOZ,,POINT (39.9145 -16.246566132),
36.8941,-17.88656613199998,QUELIMANE_2,UEL,MOZ,,POINT (36.8941 -17.88656613199998),
36.4533,-18.57596613200002,CHINDE,INE,MOZ,,POINT (36.4533 -18.57596613200002),
37.2007,-17.767166132,PORTO BELO,PBE,MOZ,,POINT (37.2007 -17.767166132),
22.51147461,60.01568603,TAALINTEHDAS,DLS,FIN,1.0,POINT (22.51147461 60.01568603),
48.03851318400001,46.35931396500001,ASTRAKHAN',AST,RUS,31.0,POINT (48.03851318400001 46.35931396500001),
48.46490478499999,53.14227294900002,SYZRAN',SYZ,RUS,6.0,POINT (48.46490478499999 53.14227294900002),
50.073486328,53.18151855500003,ROZHDESTVENO,ROZ_1,RUS,13.0,POINT (50.073486328 53.18151855500003),
133.083679199,42.74530029300001,VOSTOCHNIY,VYP,RUS,33.0,POINT (133.083679199 42.74530029300001),VOSTOCHNIY
132.885681152,42.79107665999999,NAKHODKA,NJK,RUS,171.0,POINT (132.885681152 42.79107665999999),
131.890075684,43.108886719,VLADIVOSTOK,VVO,RUS,364.0,POINT (131.890075684 43.108886719),
142.762878418,46.62512206999997,KORSAKOV,KOR_1,RUS,63.0,POINT (142.762878418 46.62512206999997),
141.854675293,46.66827392599998,NEVELSK,NEV,RUS,34.0,POINT (141.854675293 46.66827392599998),
142.055297852,49.16131591800001,SHAKHTERSK,SHA_6,RUS,64.0,POINT (142.055297852 49.16131591800001),
140.741516113,53.132080078,NIKOLAYEVSK-ON-AMURE,NIK,RUS,,POINT (140.741516113 53.132080078),
150.778503418,59.557128906,MAGADAN,MAG_2,RUS,,POINT (150.778503418 59.557128906),
149.332885742,59.71490478499999,ARMAN',ARM,RUS,,POINT (149.332885742 59.71490478499999),
177.519897461,64.73767089799998,ANADYR,DYR,RUS,6.0,POINT (177.519897461 64.73767089799998),
43.96209716800001,56.32629394499997,NIZHNIY NOVGOROD,NIZ,RUS,,POINT (43.96209716800001 56.32629394499997),
38.00347900399998,63.94049072299998,ONEGA,ONG,RUS,1.0,POINT (38.00347900399998 63.94049072299998),
40.50128173799999,64.56390380900001,ARKHANGELSK,ARH,RUS,20.0,POINT (40.50128173799999 64.56390380900001),
39.78668212899998,64.57489013700001,SEVERODVINSK,SEW,RUS,1.0,POINT (39.78668212899998 64.57489013700001),
86.571289062,67.46392822299998,IGARKA,IAA,RUS,,POINT (86.57128906200001 67.46392822299998),
142.1467285160001,49.96929931599999,BOSHNYAKOVO,BOS,RUS,,POINT (142.1467285160001 49.96929931599999),
131.385925293,42.86468505900001,SLAVYANKA,SKA_2,RUS,65.0,POINT (131.385925293 42.86468505900001),
39.70587158199999,47.20770263700001,ROSTOV-NA-DONU,ROS_3,RUS,283.0,POINT (39.70587158199999 47.20770263700001),
44.12731934,65.89550781,MEZEN,MEZ,RUS,,POINT (44.12731934 65.89550781),
52.99987793,67.64990234,NARYAN MAR,NNM,RUS,,POINT (52.99987793 67.64990234),
45.97210693,51.49371338,SARATOV_1,SAR_2,RUS,13.0,POINT (45.97210693 51.49371338),
138.3450928,46.52911377,SVETLAYA_1,SVE_2_1,RUS,1.0,POINT (138.3450928 46.52911377),
44.5335083,48.71112061,VOLGOGRAD_1_1,VOL_2_1,RUS,,POINT (44.5335083 48.71112061),
30.197509766,59.89349365200002,ST PETERSBURG,LED,RUS,498.0,POINT (30.197509766 59.89349365200002),
29.75329589799998,59.990478516,KRONSHTADT,KDT,RUS,33.0,POINT (29.75329589799998 59.990478516),
28.74212646500001,60.71569824199997,VYBORG,VYG,RUS,5.0,POINT (28.74212646500001 60.71569824199997),
34.46612548799999,62.90667724600002,MEDVEZH'YEGORSK,MED_1,RUS,,POINT (34.46612548799999 62.90667724600002),
34.77990722700002,64.98089599600002,KEM,KEM_1,RUS,,POINT (34.77990722700002 64.98089599600002),
32.41387939499998,67.126708984,KANDALAKSHA,KAN_1,RUS,33.0,POINT (32.41387939499998 67.126708984),
33.07147216800001,69.04608154300001,MURMANSK,MMK,RUS,145.0,POINT (33.07147216800001 69.04608154300001),
39.066894531,44.08728027299998,TUAPSE,TUA_2,RUS,913.0,POINT (39.066894531 44.08728027299998),
37.78228759799998,44.72491455099998,NOVOROSSIYSK,NVS,RUS,602.0,POINT (37.78228759799998 44.72491455099998),
86.16668701200001,69.40008544900002,DUDINKA,DUD,RUS,24.0,POINT (86.16668701200001 69.40008544900002),
-27.216667,38.65,ANGRA DO HEROISMO,ANG,PRT,1.0,POINT (-27.216667 38.65),
-28.266667,38.4,LAJES,LDP,PRT,,POINT (-28.266667 38.4),
31.2561,69.57373386799998,PECHENGA,PCE_1,RUS,,POINT (31.2561 69.57373386799998),
34.7821,64.52393386799997,BELOMORSK,BEM,RUS,,POINT (34.7821 64.52393386799997),
33.4501,69.08053386799997,SEVEROMORSK,SRM,RUS,84.0,POINT (33.4501 69.08053386799997),
33.5713,66.277233868,KERET,KER,RUS,,POINT (33.5713 66.277233868),
39.7303,43.568433868,SOCHI,SOC,RUS,38.0,POINT (39.7303 43.568433868),
-25.15,36.933333,VILA DO PORTO,VDP,PRT,,POINT (-25.15 36.933333),
-170.9888916,65.58947754,LAVRENTIYA_1,LAV_3,RUS,8.0,POINT (-170.9888916 65.58947754),
132.9075972,42.80472222,PORT LIVADIA,NJK_1,RUS,503.0,POINT (132.9075972 42.80472222),
61.55918728,69.75611111,PORT OF AMDERMA,AMV,RUS,,POINT (61.55918728 69.75611111000001),
-179.1097173,66.31555556,PORT OF EGVEKINOT,EGV,RUS,8.0,POINT (-179.1097173 66.31555556000001),
40.51843345,64.70388889,PORT OF EKONOMIYA,EKO,RUS,86.0,POINT (40.51843345 64.70388889),
140.1700236,53.25694444,PORT OF MAGO,MGO,RUS,,POINT (140.1700236 53.25694444),
130.8147,42.65433386799998,POSYET,PSE,RUS,6.0,POINT (130.8147 42.65433386799998),KRASKINO
23.50017668,58.56777778,VIRTSU HARBOUR,VIR,EST,,POINT (23.50017668 58.56777778),
25.70212014,59.58388889,LOKSA SHIPYARD,LSA,EST,,POINT (25.70212014 59.58388889),
27.72656066,59.41194444,PORT OF SILLAMAE - SILPORT,SLM,EST,24.0,POINT (27.72656066 59.41194444),PORT OF SILLAMAE - SILPORT
24.4923,58.37313386800002,PARNU,PAR_1_1,EST,2.0,POINT (24.4923 58.37313386800002),
24.033333,59.35,PALDISKI,PLA_2_1,EST,64.0,POINT (24.033333 59.35),
23.366667,59.3,HULLO,HUL_1,EST,,POINT (23.366667 59.3),
26.533333,59.533333,KUNDA,KUN,EST,26.0,POINT (26.533333 59.533333),
22.71843345,58.59111111,TRIIGI HARBOR,TGI,EST,,POINT (22.71843345 58.59111111),
22.5196702,58.69194444,SORU HARBOR,SRU,EST,,POINT (22.5196702 58.69194444),
24.01737338,58.14055556,PORT OF KIHNU,KHN,EST,,POINT (24.01737338 58.14055556),
14.59008789,53.56231689,POLICE,PLC,POL,35.0,POINT (14.59008789 53.56231689),
14.284729,53.72509766,NOWE WARPNO,NWA,POL,1.0,POINT (14.284729 53.72509766),
14.44592285,53.93249512,MIEDZYZDROJE (MIEDZYZDROJE),MID_2,POL,,POINT (14.44592285 53.93249512),
19.40008545,54.27789307,ELBLAG (ELBLAG),ELB,POL,,POINT (19.40008545 54.27789307),
19.45147705,54.39007568,KRYNICA MORSKA,012,POL,,POINT (19.45147705 54.39007568),
19.67749023,54.35968018,FROMBORK,011,POL,,POINT (19.67749023 54.35968018),
22.12073027,57.94916667,MONTU HARBOR,MNT,EST,,POINT (22.12073027 57.94916667),
23.2696702,57.78027778,RINGSU HARBOR (RUHNU HARBOR),RNG,EST,,POINT (23.2696702 57.78027778),
23.49163722,59.20944444,PORT OF DIRHAMI,DIR,EST,,POINT (23.49163722 59.20944444),
22.90547703,58.97638889,SUURSADAM HARBOUR,SUS,EST,,POINT (22.90547703 58.97638889),
23.30636042,58.97166667,SVIBY HARBOR,SVI,EST,,POINT (23.30636042 58.97166667),
24.1221437,58.22111111,MANILAIU HARBOUR,MAN_5,EST,,POINT (24.1221437 58.22111111),
22.39075383,58.21611111,NASVA HARBOR,NAS,EST,,POINT (22.39075383 58.21611111),
23.08633687,58.56055556,ORISSAARE HARBOUR,ORI_2,EST,,POINT (23.08633687 58.56055556),
22.77002356,58.78722222,ORJAKU HARBOUR,ORJ,EST,,POINT (22.77002356 58.78722222),
37.85913086,59.11669922,CHEREPOVETS_1,CHE_3,RUS,4.0,POINT (37.85913086 59.11669922),
170.3231,69.694734,PEVEK,PWE,RUS,25.0,POINT (170.3231 69.694734),
39.5317,68.049634,GREMIKHA,GRH,RUS,,POINT (39.5317 68.049634),
141.5173,52.212234,LAZAREV,LAZ,RUS,,POINT (141.5173 52.212234),
179.3445,63.054734,BERINGOVSKIY,BER_1,RUS,25.0,POINT (179.3445 63.054734),
140.2673,49.083134,VANINO,VNN,RUS,93.0,POINT (140.2673 49.083134),VANINO_1
142.0289,49.059834,UGLEGORSK,UGL,RUS,12.0,POINT (142.0289 49.059834),
142.0505,47.049934,KHOLMSK,KHO,RUS,6.0,POINT (142.0505 47.049934),
140.2759,48.981034,SOVETSKAYA GAVAN,SOG,RUS,31.0,POINT (140.2759 48.981034),
142.5367,53.579934,MOSKALVO,MVO,RUS,,POINT (142.5367 53.579934),
143.1811,59.347734,OKHOTSK,OHO,RUS,11.0,POINT (143.1811 59.347734),
31.02893066,59.94067383,SHLISSEL'BURG_1,SHL_1,RUS,1.0,POINT (31.02893066 59.94067383),
-17.1719825,32.7169115,CALHETA,CAL_1_1,PRT,,POINT (-17.1719825 32.7169115),
-9.420567095,38.69148254,CASCAIS,CAS_3,PRT,79.0,POINT (-9.420567094999999 38.69148254),
-16.73431397,32.73712158,CANICAL,CNL,PRT,75.0,POINT (-16.73431397 32.73712158),
-28.53149414,38.53387451,PORTO DA MADALENA,MAD_2,PRT,,POINT (-28.53149414 38.53387451),
-31.12456974,39.45459845,SANTA CRUZ DAS FLORES,SCF,PRT,,POINT (-31.12456974 39.45459845),
-7.933410645,37.01147461,FARO,FAO_1,PRT,,POINT (-7.933410645 37.01147461),
-28.21002197,38.67852783,VELAS,VEL_1,PRT,6.0,POINT (-28.21002197 38.67852783),
-31.09851074,39.67852783,PORTOS DOS AZORES,VNC,PRT,,POINT (-31.09851074 39.67852783),
-28.31908314075423,38.53084830368948,SAO ROQUE,CDP,PRT,5.0,POINT (-28.31908314075423 38.53084830368948),
-31.16737338,39.37833333,PORTO DA LAJES DAS FLORES,LAJ,PRT,1.0,POINT (-31.16737338 39.37833333),
